{
  "30002": { "lat": 33.7740, "lng": -84.2630, "city": "Avondale Estates" },
  "30004": { "lat": 34.1070, "lng": -84.2940, "city": "Alpharetta" },
  "30005": { "lat": 34.0780, "lng": -84.2210, "city": "Alpharetta" },
  "30006": { "lat": 33.9530, "lng": -84.5200, "city": "Marietta" },
  "30007": { "lat": 33.9780, "lng": -84.5150, "city": "Marietta" },
  "30008": { "lat": 33.8830, "lng": -84.5830, "city": "Marietta" },
  "30009": { "lat": 34.0720, "lng": -84.2860, "city": "Alpharetta" },
  "30011": { "lat": 33.9340, "lng": -83.8480, "city": "Auburn" },
  "30012": { "lat": 33.6770, "lng": -84.0130, "city": "Conyers" },
  "30013": { "lat": 33.6440, "lng": -84.0530, "city": "Conyers" },
  "30014": { "lat": 33.5910, "lng": -83.9060, "city": "Covington" },
  "30016": { "lat": 33.5210, "lng": -83.9580, "city": "Covington" },
  "30017": { "lat": 33.8520, "lng": -84.0060, "city": "Grayson" },
  "30019": { "lat": 33.9620, "lng": -83.8900, "city": "Dacula" },
  "30021": { "lat": 33.7410, "lng": -84.2540, "city": "Clarkston" },
  "30022": { "lat": 34.0260, "lng": -84.2340, "city": "Alpharetta" },
  "30024": { "lat": 34.0550, "lng": -84.0690, "city": "Suwanee" },
  "30025": { "lat": 33.5530, "lng": -83.7370, "city": "Social Circle" },
  "30028": { "lat": 34.2470, "lng": -84.1570, "city": "Cumming" },
  "30030": { "lat": 33.7710, "lng": -84.2960, "city": "Decatur" },
  "30032": { "lat": 33.7380, "lng": -84.2630, "city": "Decatur" },
  "30033": { "lat": 33.8100, "lng": -84.2820, "city": "Decatur" },
  "30034": { "lat": 33.6910, "lng": -84.2470, "city": "Decatur" },
  "30035": { "lat": 33.7130, "lng": -84.2010, "city": "Decatur" },
  "30038": { "lat": 33.6720, "lng": -84.1470, "city": "Lithonia" },
  "30039": { "lat": 33.7560, "lng": -84.0690, "city": "Snellville" },
  "30040": { "lat": 34.2410, "lng": -84.1390, "city": "Cumming" },
  "30041": { "lat": 34.2010, "lng": -84.0780, "city": "Cumming" },
  "30043": { "lat": 34.0010, "lng": -84.0020, "city": "Lawrenceville" },
  "30044": { "lat": 33.9170, "lng": -84.0710, "city": "Lawrenceville" },
  "30045": { "lat": 33.9510, "lng": -83.9360, "city": "Lawrenceville" },
  "30046": { "lat": 33.9560, "lng": -83.9870, "city": "Lawrenceville" },
  "30047": { "lat": 33.8200, "lng": -84.1140, "city": "Lilburn" },
  "30052": { "lat": 33.7100, "lng": -83.9040, "city": "Loganville" },
  "30054": { "lat": 33.5810, "lng": -83.7480, "city": "Oxford" },
  "30055": { "lat": 33.4350, "lng": -83.7010, "city": "Mansfield" },
  "30056": { "lat": 33.4700, "lng": -83.6020, "city": "Newborn" },
  "30058": { "lat": 33.6910, "lng": -84.1000, "city": "Lithonia" },
  "30060": { "lat": 33.9530, "lng": -84.5430, "city": "Marietta" },
  "30062": { "lat": 33.9880, "lng": -84.4790, "city": "Marietta" },
  "30064": { "lat": 33.9410, "lng": -84.5870, "city": "Marietta" },
  "30066": { "lat": 34.0240, "lng": -84.4830, "city": "Marietta" },
  "30067": { "lat": 33.9320, "lng": -84.4560, "city": "Marietta" },
  "30068": { "lat": 33.9710, "lng": -84.4380, "city": "Marietta" },
  "30069": { "lat": 33.9310, "lng": -84.5100, "city": "Marietta" },
  "30070": { "lat": 33.6530, "lng": -84.0150, "city": "Porterdale" },
  "30071": { "lat": 33.9400, "lng": -84.2070, "city": "Norcross" },
  "30072": { "lat": 33.7870, "lng": -84.2170, "city": "Pine Lake" },
  "30075": { "lat": 34.0530, "lng": -84.3740, "city": "Roswell" },
  "30076": { "lat": 34.0250, "lng": -84.3160, "city": "Roswell" },
  "30078": { "lat": 33.8580, "lng": -84.0370, "city": "Snellville" },
  "30079": { "lat": 33.7870, "lng": -84.2560, "city": "Scottdale" },
  "30080": { "lat": 33.8730, "lng": -84.4640, "city": "Smyrna" },
  "30082": { "lat": 33.8530, "lng": -84.5030, "city": "Smyrna" },
  "30083": { "lat": 33.7880, "lng": -84.2410, "city": "Stone Mountain" },
  "30084": { "lat": 33.8480, "lng": -84.2230, "city": "Tucker" },
  "30085": { "lat": 33.8150, "lng": -84.1640, "city": "Tucker" },
  "30087": { "lat": 33.8010, "lng": -84.1510, "city": "Stone Mountain" },
  "30088": { "lat": 33.7450, "lng": -84.1700, "city": "Stone Mountain" },
  "30090": { "lat": 33.9670, "lng": -84.5480, "city": "Marietta" },
  "30092": { "lat": 33.9710, "lng": -84.2160, "city": "Peachtree Corners" },
  "30093": { "lat": 33.8870, "lng": -84.1450, "city": "Norcross" },
  "30094": { "lat": 33.6200, "lng": -84.0280, "city": "Conyers" },
  "30096": { "lat": 33.9710, "lng": -84.1380, "city": "Duluth" },
  "30097": { "lat": 34.0210, "lng": -84.1550, "city": "Duluth" },
  "30098": { "lat": 33.9570, "lng": -84.1460, "city": "Duluth" },
  "30101": { "lat": 34.0650, "lng": -84.7280, "city": "Acworth" },
  "30102": { "lat": 34.0890, "lng": -84.6560, "city": "Acworth" },
  "30103": { "lat": 34.3770, "lng": -84.9300, "city": "Adairsville" },
  "30104": { "lat": 34.1680, "lng": -85.0520, "city": "Aragon" },
  "30105": { "lat": 34.4730, "lng": -85.1730, "city": "Armuchee" },
  "30106": { "lat": 33.8440, "lng": -84.6240, "city": "Austell" },
  "30107": { "lat": 34.3200, "lng": -84.2790, "city": "Ball Ground" },
  "30108": { "lat": 33.5350, "lng": -85.1780, "city": "Bowdon" },
  "30110": { "lat": 33.7190, "lng": -85.1210, "city": "Bremen" },
  "30113": { "lat": 33.7830, "lng": -85.2270, "city": "Buchanan" },
  "30114": { "lat": 34.2340, "lng": -84.4940, "city": "Canton" },
  "30115": { "lat": 34.2670, "lng": -84.4170, "city": "Canton" },
  "30116": { "lat": 33.5630, "lng": -85.0780, "city": "Carrollton" },
  "30117": { "lat": 33.5810, "lng": -85.0760, "city": "Carrollton" },
  "30118": { "lat": 33.5680, "lng": -85.1050, "city": "Carrollton" },
  "30120": { "lat": 34.1650, "lng": -84.7960, "city": "Cartersville" },
  "30121": { "lat": 34.1870, "lng": -84.8400, "city": "Cartersville" },
  "30122": { "lat": 33.7540, "lng": -84.6370, "city": "Lithia Springs" },
  "30123": { "lat": 34.2840, "lng": -84.8200, "city": "Cassville" },
  "30124": { "lat": 34.2730, "lng": -85.2930, "city": "Cave Spring" },
  "30125": { "lat": 34.0120, "lng": -85.2720, "city": "Cedartown" },
  "30126": { "lat": 33.8310, "lng": -84.6580, "city": "Mableton" },
  "30127": { "lat": 33.8640, "lng": -84.7090, "city": "Powder Springs" },
  "30132": { "lat": 33.9580, "lng": -84.8340, "city": "Dallas" },
  "30134": { "lat": 33.7510, "lng": -84.5740, "city": "Douglasville" },
  "30135": { "lat": 33.6930, "lng": -84.6980, "city": "Douglasville" },
  "30137": { "lat": 34.1030, "lng": -84.7050, "city": "Emerson" },
  "30139": { "lat": 34.3800, "lng": -84.7050, "city": "Fairmount" },
  "30141": { "lat": 33.8860, "lng": -84.7630, "city": "Hiram" },
  "30143": { "lat": 34.4340, "lng": -84.4310, "city": "Jasper" },
  "30144": { "lat": 34.0370, "lng": -84.5840, "city": "Kennesaw" },
  "30145": { "lat": 34.2400, "lng": -84.9560, "city": "Kingston" },
  "30146": { "lat": 34.3010, "lng": -84.3030, "city": "Marble Hill" },
  "30147": { "lat": 34.1960, "lng": -85.2070, "city": "Lindale" },
  "30148": { "lat": 34.5410, "lng": -84.3020, "city": "Ellijay" },
  "30149": { "lat": 34.2540, "lng": -85.1640, "city": "Mount Berry" },
  "30150": { "lat": 33.7400, "lng": -84.9060, "city": "Mount Zion" },
  "30152": { "lat": 34.0310, "lng": -84.6330, "city": "Kennesaw" },
  "30153": { "lat": 34.0090, "lng": -85.0350, "city": "Rockmart" },
  "30157": { "lat": 33.9350, "lng": -84.7620, "city": "Dallas" },
  "30161": { "lat": 34.2620, "lng": -85.1790, "city": "Rome" },
  "30162": { "lat": 34.2700, "lng": -85.1650, "city": "Rome" },
  "30165": { "lat": 34.2930, "lng": -85.2500, "city": "Rome" },
  "30168": { "lat": 33.7700, "lng": -84.6280, "city": "Austell" },
  "30170": { "lat": 33.6430, "lng": -85.1770, "city": "Roopville" },
  "30171": { "lat": 34.3730, "lng": -84.6040, "city": "Rydal" },
  "30175": { "lat": 34.5440, "lng": -84.5720, "city": "Talking Rock" },
  "30176": { "lat": 33.8110, "lng": -85.3510, "city": "Tallapoosa" },
  "30177": { "lat": 34.5130, "lng": -84.4660, "city": "Tate" },
  "30178": { "lat": 34.1230, "lng": -84.9450, "city": "Taylorsville" },
  "30179": { "lat": 33.6700, "lng": -85.0020, "city": "Temple" },
  "30180": { "lat": 33.6580, "lng": -84.9310, "city": "Villa Rica" },
  "30182": { "lat": 33.6120, "lng": -85.3050, "city": "Waco" },
  "30183": { "lat": 34.4000, "lng": -84.5170, "city": "Waleska" },
  "30184": { "lat": 34.2810, "lng": -84.7030, "city": "White" },
  "30185": { "lat": 33.4830, "lng": -84.9920, "city": "Whitesburg" },
  "30187": { "lat": 33.6290, "lng": -84.8280, "city": "Lithia Springs" },
  "30188": { "lat": 34.1000, "lng": -84.5600, "city": "Woodstock" },
  "30189": { "lat": 34.1350, "lng": -84.4770, "city": "Woodstock" },
  "30204": { "lat": 33.0640, "lng": -84.2680, "city": "Barnesville" },
  "30205": { "lat": 33.2830, "lng": -84.3580, "city": "Brooks" },
  "30206": { "lat": 33.0210, "lng": -84.3700, "city": "Concord" },
  "30213": { "lat": 33.5310, "lng": -84.5500, "city": "Fairburn" },
  "30214": { "lat": 33.4490, "lng": -84.4770, "city": "Fayetteville" },
  "30215": { "lat": 33.3650, "lng": -84.4910, "city": "Fayetteville" },
  "30216": { "lat": 33.3050, "lng": -83.9160, "city": "Flovilla" },
  "30217": { "lat": 33.2810, "lng": -85.1570, "city": "Franklin" },
  "30218": { "lat": 33.1730, "lng": -84.5840, "city": "Gay" },
  "30220": { "lat": 33.2650, "lng": -84.7700, "city": "Grantville" },
  "30222": { "lat": 33.0620, "lng": -84.7010, "city": "Greenville" },
  "30223": { "lat": 33.2460, "lng": -84.2630, "city": "Griffin" },
  "30224": { "lat": 33.2280, "lng": -84.2470, "city": "Griffin" },
  "30228": { "lat": 33.4730, "lng": -84.3040, "city": "Hampton" },
  "30229": { "lat": 33.1690, "lng": -84.3550, "city": "Haralson" },
  "30230": { "lat": 33.1120, "lng": -84.9330, "city": "Hogansville" },
  "30233": { "lat": 33.3260, "lng": -83.9800, "city": "Jackson" },
  "30234": { "lat": 33.3160, "lng": -84.0440, "city": "Jenkinsburg" },
  "30236": { "lat": 33.5200, "lng": -84.3470, "city": "Jonesboro" },
  "30237": { "lat": 33.5210, "lng": -84.3540, "city": "Jonesboro" },
  "30238": { "lat": 33.4840, "lng": -84.3620, "city": "Jonesboro" },
  "30240": { "lat": 33.0050, "lng": -85.0270, "city": "LaGrange" },
  "30241": { "lat": 33.0370, "lng": -85.0430, "city": "LaGrange" },
  "30248": { "lat": 33.3990, "lng": -84.1480, "city": "Locust Grove" },
  "30250": { "lat": 33.4440, "lng": -84.2800, "city": "Lovejoy" },
  "30251": { "lat": 33.1600, "lng": -84.7450, "city": "Luthersville" },
  "30252": { "lat": 33.4670, "lng": -84.0640, "city": "McDonough" },
  "30253": { "lat": 33.4070, "lng": -84.1500, "city": "McDonough" },
  "30256": { "lat": 33.1100, "lng": -84.1600, "city": "Milner" },
  "30257": { "lat": 33.1170, "lng": -83.7810, "city": "Monticello" },
  "30258": { "lat": 33.0320, "lng": -84.4890, "city": "Molena" },
  "30259": { "lat": 33.2490, "lng": -84.5510, "city": "Moreland" },
  "30260": { "lat": 33.5790, "lng": -84.3360, "city": "Morrow" },
  "30263": { "lat": 33.3570, "lng": -84.8070, "city": "Newnan" },
  "30265": { "lat": 33.3520, "lng": -84.7380, "city": "Newnan" },
  "30268": { "lat": 33.5350, "lng": -84.6830, "city": "Palmetto" },
  "30269": { "lat": 33.3610, "lng": -84.5690, "city": "Peachtree City" },
  "30270": { "lat": 33.4450, "lng": -84.4400, "city": "Riverdale" },
  "30273": { "lat": 33.5600, "lng": -84.2670, "city": "Rex" },
  "30274": { "lat": 33.5550, "lng": -84.3750, "city": "Riverdale" },
  "30275": { "lat": 33.4280, "lng": -84.8410, "city": "Sharpsburg" },
  "30276": { "lat": 33.1790, "lng": -84.4210, "city": "Senoia" },
  "30277": { "lat": 33.4170, "lng": -84.6960, "city": "Sharpsburg" },
  "30281": { "lat": 33.5190, "lng": -84.1600, "city": "Stockbridge" },
  "30284": { "lat": 33.1250, "lng": -84.2860, "city": "Sunny Side" },
  "30285": { "lat": 32.8850, "lng": -84.3280, "city": "The Rock" },
  "30286": { "lat": 32.8770, "lng": -84.2880, "city": "Thomaston" },
  "30288": { "lat": 33.6440, "lng": -84.2390, "city": "Conley" },
  "30289": { "lat": 33.3340, "lng": -84.5920, "city": "Tyrone" },
  "30290": { "lat": 33.3780, "lng": -84.6340, "city": "Tyrone" },
  "30291": { "lat": 33.5770, "lng": -84.4370, "city": "Union City" },
  "30292": { "lat": 33.0860, "lng": -84.1190, "city": "Williamson" },
  "30293": { "lat": 32.9610, "lng": -84.6230, "city": "Woodbury" },
  "30294": { "lat": 33.6260, "lng": -84.2000, "city": "Ellenwood" },
  "30296": { "lat": 33.5130, "lng": -84.4280, "city": "Riverdale" },
  "30297": { "lat": 33.5620, "lng": -84.3470, "city": "Forest Park" },
  "30301": { "lat": 33.7490, "lng": -84.3880, "city": "Atlanta" },
  "30303": { "lat": 33.7530, "lng": -84.3920, "city": "Atlanta" },
  "30305": { "lat": 33.8350, "lng": -84.3820, "city": "Atlanta" },
  "30306": { "lat": 33.7880, "lng": -84.3490, "city": "Atlanta" },
  "30307": { "lat": 33.7710, "lng": -84.3380, "city": "Atlanta" },
  "30308": { "lat": 33.7710, "lng": -84.3770, "city": "Atlanta" },
  "30309": { "lat": 33.7990, "lng": -84.3880, "city": "Atlanta" },
  "30310": { "lat": 33.7280, "lng": -84.4300, "city": "Atlanta" },
  "30311": { "lat": 33.7220, "lng": -84.4730, "city": "Atlanta" },
  "30312": { "lat": 33.7430, "lng": -84.3780, "city": "Atlanta" },
  "30313": { "lat": 33.7600, "lng": -84.4050, "city": "Atlanta" },
  "30314": { "lat": 33.7580, "lng": -84.4310, "city": "Atlanta" },
  "30315": { "lat": 33.7080, "lng": -84.3820, "city": "Atlanta" },
  "30316": { "lat": 33.7260, "lng": -84.3330, "city": "Atlanta" },
  "30317": { "lat": 33.7490, "lng": -84.3160, "city": "Atlanta" },
  "30318": { "lat": 33.7920, "lng": -84.4370, "city": "Atlanta" },
  "30319": { "lat": 33.8710, "lng": -84.3240, "city": "Atlanta" },
  "30322": { "lat": 33.7930, "lng": -84.3250, "city": "Atlanta" },
  "30324": { "lat": 33.8170, "lng": -84.3560, "city": "Atlanta" },
  "30326": { "lat": 33.8490, "lng": -84.3620, "city": "Atlanta" },
  "30327": { "lat": 33.8540, "lng": -84.4220, "city": "Atlanta" },
  "30328": { "lat": 33.9330, "lng": -84.3580, "city": "Atlanta" },
  "30329": { "lat": 33.8210, "lng": -84.3110, "city": "Atlanta" },
  "30331": { "lat": 33.7080, "lng": -84.5270, "city": "Atlanta" },
  "30332": { "lat": 33.7756, "lng": -84.3963, "city": "Atlanta" },
  "30334": { "lat": 33.7490, "lng": -84.3900, "city": "Atlanta" },
  "30336": { "lat": 33.7400, "lng": -84.5750, "city": "Atlanta" },
  "30337": { "lat": 33.6270, "lng": -84.4410, "city": "Atlanta" },
  "30338": { "lat": 33.9460, "lng": -84.3170, "city": "Atlanta" },
  "30339": { "lat": 33.8710, "lng": -84.4570, "city": "Atlanta" },
  "30340": { "lat": 33.8960, "lng": -84.2570, "city": "Atlanta" },
  "30341": { "lat": 33.8870, "lng": -84.2900, "city": "Atlanta" },
  "30342": { "lat": 33.8800, "lng": -84.3680, "city": "Atlanta" },
  "30344": { "lat": 33.6940, "lng": -84.4620, "city": "Atlanta" },
  "30345": { "lat": 33.8510, "lng": -84.2550, "city": "Atlanta" },
  "30346": { "lat": 33.9210, "lng": -84.3280, "city": "Atlanta" },
  "30349": { "lat": 33.6150, "lng": -84.5230, "city": "Atlanta" },
  "30350": { "lat": 33.9790, "lng": -84.3310, "city": "Atlanta" },
  "30354": { "lat": 33.6570, "lng": -84.3750, "city": "Atlanta" },
  "30360": { "lat": 33.9410, "lng": -84.2780, "city": "Atlanta" },
  "30363": { "lat": 33.7900, "lng": -84.4050, "city": "Atlanta" },
  "30401": { "lat": 32.5920, "lng": -82.3530, "city": "Swainsboro" },
  "30410": { "lat": 32.1960, "lng": -82.4080, "city": "Ailey" },
  "30411": { "lat": 32.1250, "lng": -82.5070, "city": "Alamo" },
  "30413": { "lat": 32.8050, "lng": -82.3720, "city": "Bartow" },
  "30415": { "lat": 32.4100, "lng": -81.7730, "city": "Brooklet" },
  "30417": { "lat": 32.1700, "lng": -81.9540, "city": "Claxton" },
  "30420": { "lat": 32.3740, "lng": -82.1590, "city": "Cobbtown" },
  "30421": { "lat": 32.1220, "lng": -82.1480, "city": "Collins" },
  "30425": { "lat": 32.6530, "lng": -82.0500, "city": "Garfield" },
  "30427": { "lat": 31.9230, "lng": -81.8720, "city": "Glennville" },
  "30428": { "lat": 32.2060, "lng": -82.6190, "city": "Glenwood" },
  "30434": { "lat": 33.0030, "lng": -82.6080, "city": "Louisville" },
  "30436": { "lat": 32.2130, "lng": -82.3870, "city": "Lyons" },
  "30439": { "lat": 32.3940, "lng": -82.3080, "city": "Metter" },
  "30441": { "lat": 32.7970, "lng": -82.5990, "city": "Midville" },
  "30442": { "lat": 32.8640, "lng": -82.3190, "city": "Millen" },
  "30445": { "lat": 32.1570, "lng": -82.5910, "city": "Mount Vernon" },
  "30446": { "lat": 32.5970, "lng": -81.5750, "city": "Newington" },
  "30450": { "lat": 32.5840, "lng": -82.0150, "city": "Portal" },
  "30452": { "lat": 32.3640, "lng": -81.9490, "city": "Register" },
  "30453": { "lat": 32.0370, "lng": -82.1150, "city": "Reidsville" },
  "30455": { "lat": 32.7040, "lng": -82.0460, "city": "Rocky Ford" },
  "30456": { "lat": 32.8750, "lng": -81.9550, "city": "Sardis" },
  "30457": { "lat": 32.4570, "lng": -82.5940, "city": "Soperton" },
  "30458": { "lat": 32.4490, "lng": -81.7830, "city": "Statesboro" },
  "30460": { "lat": 32.4220, "lng": -81.7830, "city": "Statesboro" },
  "30461": { "lat": 32.4270, "lng": -81.7120, "city": "Statesboro" },
  "30464": { "lat": 32.3270, "lng": -82.5010, "city": "Tarrytown" },
  "30467": { "lat": 32.7270, "lng": -81.6300, "city": "Sylvania" },
  "30470": { "lat": 32.2610, "lng": -82.5060, "city": "Uvalda" },
  "30471": { "lat": 32.3350, "lng": -82.3530, "city": "Vidalia" },
  "30473": { "lat": 32.1050, "lng": -82.3000, "city": "Vidalia" },
  "30474": { "lat": 32.2070, "lng": -82.3870, "city": "Vidalia" },
  "30477": { "lat": 33.0530, "lng": -82.4870, "city": "Wadley" },
  "30501": { "lat": 34.2900, "lng": -83.8240, "city": "Gainesville" },
  "30504": { "lat": 34.2660, "lng": -83.8090, "city": "Gainesville" },
  "30506": { "lat": 34.3270, "lng": -83.8640, "city": "Gainesville" },
  "30507": { "lat": 34.3060, "lng": -83.7530, "city": "Gainesville" },
  "30510": { "lat": 34.5470, "lng": -83.5380, "city": "Alto" },
  "30511": { "lat": 34.4970, "lng": -83.5730, "city": "Baldwin" },
  "30512": { "lat": 34.8590, "lng": -83.9810, "city": "Blairsville" },
  "30513": { "lat": 34.8550, "lng": -84.3150, "city": "Blue Ridge" },
  "30516": { "lat": 34.3470, "lng": -83.0700, "city": "Bowersville" },
  "30517": { "lat": 34.1480, "lng": -83.7330, "city": "Braselton" },
  "30518": { "lat": 34.1240, "lng": -84.0040, "city": "Buford" },
  "30519": { "lat": 34.0970, "lng": -83.9560, "city": "Buford" },
  "30520": { "lat": 34.3750, "lng": -83.2470, "city": "Canon" },
  "30521": { "lat": 34.4010, "lng": -83.3460, "city": "Carnesville" },
  "30522": { "lat": 34.7720, "lng": -84.4490, "city": "Cherry Log" },
  "30523": { "lat": 34.6290, "lng": -83.5300, "city": "Clarkesville" },
  "30525": { "lat": 34.8210, "lng": -83.3890, "city": "Clayton" },
  "30527": { "lat": 34.4210, "lng": -83.7790, "city": "Clermont" },
  "30528": { "lat": 34.5530, "lng": -83.7390, "city": "Cleveland" },
  "30529": { "lat": 34.2590, "lng": -83.5070, "city": "Commerce" },
  "30530": { "lat": 34.2100, "lng": -83.4640, "city": "Commerce" },
  "30531": { "lat": 34.5150, "lng": -83.6850, "city": "Cornelia" },
  "30533": { "lat": 34.5780, "lng": -84.1880, "city": "Dahlonega" },
  "30534": { "lat": 34.4690, "lng": -84.1510, "city": "Dawsonville" },
  "30535": { "lat": 34.6320, "lng": -83.4920, "city": "Demorest" },
  "30536": { "lat": 34.6090, "lng": -84.2660, "city": "Ellijay" },
  "30537": { "lat": 34.9230, "lng": -83.3630, "city": "Dillard" },
  "30538": { "lat": 34.5440, "lng": -83.2790, "city": "Eastanollee" },
  "30540": { "lat": 34.6850, "lng": -84.4820, "city": "Ellijay" },
  "30541": { "lat": 34.8670, "lng": -84.1060, "city": "Epworth" },
  "30542": { "lat": 34.1940, "lng": -83.8430, "city": "Flowery Branch" },
  "30543": { "lat": 34.3580, "lng": -83.6300, "city": "Gillsville" },
  "30545": { "lat": 34.7260, "lng": -83.7800, "city": "Helen" },
  "30546": { "lat": 34.8810, "lng": -83.7560, "city": "Hiawassee" },
  "30547": { "lat": 34.3260, "lng": -83.2670, "city": "Homer" },
  "30548": { "lat": 34.1140, "lng": -83.7960, "city": "Hoschton" },
  "30549": { "lat": 34.1010, "lng": -83.6370, "city": "Jefferson" },
  "30553": { "lat": 34.2080, "lng": -83.1540, "city": "Lavonia" },
  "30554": { "lat": 34.4170, "lng": -83.5830, "city": "Lula" },
  "30555": { "lat": 34.9600, "lng": -84.0870, "city": "McCaysville" },
  "30557": { "lat": 34.4330, "lng": -83.1620, "city": "Martin" },
  "30558": { "lat": 34.3070, "lng": -83.4760, "city": "Maysville" },
  "30559": { "lat": 34.9250, "lng": -84.2280, "city": "Mineral Bluff" },
  "30560": { "lat": 34.8560, "lng": -84.3780, "city": "Morganton" },
  "30563": { "lat": 34.5810, "lng": -83.4400, "city": "Mount Airy" },
  "30564": { "lat": 34.4190, "lng": -83.8600, "city": "Murrayville" },
  "30565": { "lat": 34.1280, "lng": -83.4510, "city": "Nicholson" },
  "30566": { "lat": 34.2180, "lng": -83.8750, "city": "Oakwood" },
  "30567": { "lat": 34.1710, "lng": -83.5590, "city": "Pendergrass" },
  "30568": { "lat": 34.9460, "lng": -83.4070, "city": "Rabun Gap" },
  "30571": { "lat": 34.6740, "lng": -83.6370, "city": "Sautee Nacoochee" },
  "30572": { "lat": 34.7510, "lng": -84.1750, "city": "Suches" },
  "30573": { "lat": 34.6170, "lng": -83.3190, "city": "Tallulah Falls" },
  "30575": { "lat": 34.3240, "lng": -83.6800, "city": "Talmo" },
  "30576": { "lat": 34.8510, "lng": -83.5310, "city": "Tiger" },
  "30577": { "lat": 34.5190, "lng": -83.2840, "city": "Toccoa" },
  "30581": { "lat": 34.7450, "lng": -83.4620, "city": "Wiley" },
  "30582": { "lat": 34.9530, "lng": -83.8030, "city": "Young Harris" },
  "30601": { "lat": 33.9610, "lng": -83.3780, "city": "Athens" },
  "30602": { "lat": 33.9480, "lng": -83.3730, "city": "Athens" },
  "30605": { "lat": 33.9260, "lng": -83.3360, "city": "Athens" },
  "30606": { "lat": 33.9520, "lng": -83.4300, "city": "Athens" },
  "30607": { "lat": 34.0050, "lng": -83.4580, "city": "Athens" },
  "30609": { "lat": 33.9420, "lng": -83.3860, "city": "Athens" },
  "30620": { "lat": 33.8420, "lng": -83.7110, "city": "Bethlehem" },
  "30621": { "lat": 33.7960, "lng": -83.4650, "city": "Bishop" },
  "30622": { "lat": 33.8840, "lng": -83.4700, "city": "Bogart" },
  "30623": { "lat": 33.7030, "lng": -83.5170, "city": "Bostwick" },
  "30624": { "lat": 34.1140, "lng": -83.0460, "city": "Bowman" },
  "30625": { "lat": 33.5280, "lng": -83.5010, "city": "Buckhead" },
  "30627": { "lat": 33.8050, "lng": -83.1480, "city": "Crawfordville" },
  "30628": { "lat": 34.0680, "lng": -83.2890, "city": "Danielsville" },
  "30630": { "lat": 33.9610, "lng": -83.1040, "city": "Dewy Rose" },
  "30631": { "lat": 33.6600, "lng": -82.8430, "city": "Eatonton" },
  "30633": { "lat": 34.1100, "lng": -83.2380, "city": "Elberton" },
  "30634": { "lat": 34.1380, "lng": -83.1180, "city": "Elberton" },
  "30635": { "lat": 34.0750, "lng": -82.8750, "city": "Hartwell" },
  "30641": { "lat": 33.7570, "lng": -83.6730, "city": "Good Hope" },
  "30642": { "lat": 33.5570, "lng": -83.2210, "city": "Greensboro" },
  "30643": { "lat": 34.3580, "lng": -83.0640, "city": "Hartwell" },
  "30646": { "lat": 34.0470, "lng": -83.3610, "city": "Hull" },
  "30648": { "lat": 33.9050, "lng": -83.0570, "city": "Lexington" },
  "30650": { "lat": 33.5740, "lng": -83.4020, "city": "Madison" },
  "30655": { "lat": 33.7820, "lng": -83.7200, "city": "Monroe" },
  "30656": { "lat": 33.8150, "lng": -83.7350, "city": "Monroe" },
  "30660": { "lat": 33.7540, "lng": -82.7630, "city": "Rayle" },
  "30662": { "lat": 34.2050, "lng": -83.1780, "city": "Royston" },
  "30663": { "lat": 33.5890, "lng": -83.5490, "city": "Rutledge" },
  "30664": { "lat": 33.5370, "lng": -82.7860, "city": "Sharon" },
  "30666": { "lat": 33.9100, "lng": -83.5680, "city": "Statham" },
  "30667": { "lat": 33.7230, "lng": -83.0750, "city": "Union Point" },
  "30668": { "lat": 33.8440, "lng": -82.7240, "city": "Washington" },
  "30669": { "lat": 33.6470, "lng": -83.0760, "city": "White Plains" },
  "30671": { "lat": 33.7790, "lng": -83.2200, "city": "Winterville" },
  "30673": { "lat": 33.7350, "lng": -82.8200, "city": "Washington" },
  "30677": { "lat": 33.8730, "lng": -83.3920, "city": "Watkinsville" },
  "30680": { "lat": 33.8830, "lng": -83.6680, "city": "Winder" },
  "30683": { "lat": 34.0150, "lng": -83.3110, "city": "Winterville" },
  "30701": { "lat": 34.5000, "lng": -84.9430, "city": "Calhoun" },
  "30705": { "lat": 34.7590, "lng": -84.7090, "city": "Chatsworth" },
  "30707": { "lat": 34.7790, "lng": -85.3640, "city": "Chickamauga" },
  "30708": { "lat": 34.9060, "lng": -84.6860, "city": "Cisco" },
  "30710": { "lat": 34.8610, "lng": -84.9020, "city": "Cohutta" },
  "30711": { "lat": 34.8120, "lng": -84.8350, "city": "Crandall" },
  "30720": { "lat": 34.7700, "lng": -84.9680, "city": "Dalton" },
  "30721": { "lat": 34.7370, "lng": -84.9210, "city": "Dalton" },
  "30725": { "lat": 34.9010, "lng": -85.3390, "city": "Flintstone" },
  "30726": { "lat": 34.9770, "lng": -85.2230, "city": "Graysville" },
  "30728": { "lat": 34.7010, "lng": -85.0830, "city": "LaFayette" },
  "30730": { "lat": 34.3580, "lng": -85.3650, "city": "Lyerly" },
  "30731": { "lat": 34.6440, "lng": -85.4280, "city": "Menlo" },
  "30733": { "lat": 34.4580, "lng": -85.1060, "city": "Plainville" },
  "30734": { "lat": 34.4610, "lng": -84.7480, "city": "Ranger" },
  "30735": { "lat": 34.5260, "lng": -84.8120, "city": "Resaca" },
  "30736": { "lat": 34.8520, "lng": -85.1120, "city": "Ringgold" },
  "30738": { "lat": 34.7140, "lng": -85.3820, "city": "Rising Fawn" },
  "30739": { "lat": 34.7790, "lng": -85.2760, "city": "Rock Spring" },
  "30740": { "lat": 34.6550, "lng": -84.9190, "city": "Rocky Face" },
  "30741": { "lat": 34.9120, "lng": -85.2910, "city": "Rossville" },
  "30742": { "lat": 34.9490, "lng": -85.2940, "city": "Fort Oglethorpe" },
  "30746": { "lat": 34.5070, "lng": -84.9130, "city": "Sugar Valley" },
  "30747": { "lat": 34.3700, "lng": -85.2880, "city": "Summerville" },
  "30750": { "lat": 34.9290, "lng": -85.3510, "city": "Lookout Mountain" },
  "30751": { "lat": 34.9610, "lng": -84.7380, "city": "Tennga" },
  "30752": { "lat": 34.8920, "lng": -85.4830, "city": "Trenton" },
  "30753": { "lat": 34.5660, "lng": -85.3290, "city": "Trion" },
  "30755": { "lat": 34.8380, "lng": -84.9540, "city": "Tunnel Hill" },
  "30756": { "lat": 34.8700, "lng": -85.0370, "city": "Varnell" },
  "30757": { "lat": 34.9300, "lng": -85.4960, "city": "Wildwood" },
  "30802": { "lat": 33.4800, "lng": -82.3030, "city": "Appling" },
  "30803": { "lat": 33.2790, "lng": -82.5670, "city": "Avera" },
  "30805": { "lat": 33.3590, "lng": -82.0930, "city": "Blythe" },
  "30807": { "lat": 33.5070, "lng": -82.5380, "city": "Camak" },
  "30808": { "lat": 33.2600, "lng": -82.2810, "city": "Dearing" },
  "30809": { "lat": 33.5290, "lng": -82.1300, "city": "Evans" },
  "30810": { "lat": 33.2320, "lng": -82.6550, "city": "Gibson" },
  "30813": { "lat": 33.4580, "lng": -82.2200, "city": "Grovetown" },
  "30814": { "lat": 33.4210, "lng": -82.1770, "city": "Harlem" },
  "30815": { "lat": 33.3190, "lng": -82.0210, "city": "Hephzibah" },
  "30816": { "lat": 33.3140, "lng": -82.3230, "city": "Keysville" },
  "30817": { "lat": 33.7850, "lng": -82.4930, "city": "Lincolnton" },
  "30818": { "lat": 33.2460, "lng": -82.4120, "city": "Matthews" },
  "30820": { "lat": 33.3230, "lng": -82.7600, "city": "Mitchell" },
  "30821": { "lat": 33.5240, "lng": -82.6430, "city": "Norwood" },
  "30822": { "lat": 32.9750, "lng": -81.9410, "city": "Perkins" },
  "30823": { "lat": 33.2060, "lng": -82.7830, "city": "Sandersville" },
  "30824": { "lat": 33.3810, "lng": -82.3310, "city": "Thomson" },
  "30828": { "lat": 33.4410, "lng": -82.6780, "city": "Warrenton" },
  "30830": { "lat": 33.0830, "lng": -81.9740, "city": "Waynesboro" },
  "30833": { "lat": 33.1670, "lng": -82.3790, "city": "Wrens" },
  "30901": { "lat": 33.4670, "lng": -81.9730, "city": "Augusta" },
  "30903": { "lat": 33.4730, "lng": -81.9750, "city": "Augusta" },
  "30904": { "lat": 33.4880, "lng": -82.0220, "city": "Augusta" },
  "30905": { "lat": 33.4210, "lng": -82.0780, "city": "Augusta" },
  "30906": { "lat": 33.3660, "lng": -82.0160, "city": "Augusta" },
  "30907": { "lat": 33.5430, "lng": -82.1060, "city": "Augusta" },
  "30909": { "lat": 33.5100, "lng": -82.0570, "city": "Augusta" },
  "30912": { "lat": 33.4710, "lng": -81.9900, "city": "Augusta" },
  "31001": { "lat": 32.1710, "lng": -83.2260, "city": "Abbeville" },
  "31002": { "lat": 32.5540, "lng": -82.8850, "city": "Adrian" },
  "31003": { "lat": 32.5420, "lng": -83.2020, "city": "Allentown" },
  "31005": { "lat": 32.5430, "lng": -83.5970, "city": "Bonaire" },
  "31006": { "lat": 32.5730, "lng": -84.2050, "city": "Butler" },
  "31007": { "lat": 32.1920, "lng": -83.5630, "city": "Byromville" },
  "31008": { "lat": 32.6140, "lng": -83.6430, "city": "Byron" },
  "31009": { "lat": 32.3920, "lng": -82.8700, "city": "Cadwell" },
  "31011": { "lat": 32.3270, "lng": -82.8630, "city": "Chauncey" },
  "31012": { "lat": 32.3760, "lng": -83.1970, "city": "Cochran" },
  "31014": { "lat": 32.2600, "lng": -83.3380, "city": "Cochran" },
  "31015": { "lat": 31.9560, "lng": -83.7530, "city": "Cordele" },
  "31016": { "lat": 32.8430, "lng": -84.0340, "city": "Culloden" },
  "31017": { "lat": 32.5520, "lng": -83.1170, "city": "Danville" },
  "31018": { "lat": 33.0500, "lng": -82.7930, "city": "Davisboro" },
  "31019": { "lat": 32.4330, "lng": -82.9270, "city": "Dexter" },
  "31020": { "lat": 32.6240, "lng": -83.4850, "city": "Dry Branch" },
  "31021": { "lat": 32.5340, "lng": -82.9210, "city": "Dublin" },
  "31023": { "lat": 32.1820, "lng": -83.2860, "city": "Eastman" },
  "31024": { "lat": 33.3480, "lng": -83.4760, "city": "Eatonton" },
  "31025": { "lat": 32.2900, "lng": -83.6180, "city": "Elko" },
  "31027": { "lat": 32.5470, "lng": -82.7310, "city": "East Dublin" },
  "31028": { "lat": 32.5830, "lng": -83.6540, "city": "Centerville" },
  "31029": { "lat": 33.0770, "lng": -83.7620, "city": "Forsyth" },
  "31030": { "lat": 32.7590, "lng": -83.8880, "city": "Fort Valley" },
  "31031": { "lat": 32.9500, "lng": -83.2310, "city": "Gordon" },
  "31032": { "lat": 33.0200, "lng": -83.5190, "city": "Gray" },
  "31033": { "lat": 33.0560, "lng": -83.2540, "city": "Haddock" },
  "31035": { "lat": 32.8400, "lng": -82.7350, "city": "Harrison" },
  "31036": { "lat": 32.2870, "lng": -83.4380, "city": "Hawkinsville" },
  "31037": { "lat": 32.2780, "lng": -82.7680, "city": "Helena" },
  "31038": { "lat": 33.1580, "lng": -83.6790, "city": "Hillsboro" },
  "31039": { "lat": 32.4900, "lng": -84.0380, "city": "Ideal" },
  "31040": { "lat": 32.5200, "lng": -82.8740, "city": "Dublin" },
  "31041": { "lat": 32.6770, "lng": -84.1590, "city": "Irwinton" },
  "31042": { "lat": 32.8600, "lng": -83.0910, "city": "Irwinton" },
  "31044": { "lat": 32.6410, "lng": -83.3340, "city": "Jeffersonville" },
  "31045": { "lat": 33.2540, "lng": -82.9110, "city": "Jewell" },
  "31046": { "lat": 33.0020, "lng": -83.7210, "city": "Juliette" },
  "31047": { "lat": 32.4060, "lng": -83.5610, "city": "Kathleen" },
  "31049": { "lat": 32.5420, "lng": -82.5190, "city": "Kite" },
  "31050": { "lat": 32.8880, "lng": -83.8470, "city": "Knoxville" },
  "31052": { "lat": 32.7230, "lng": -83.7430, "city": "Lizella" },
  "31054": { "lat": 32.7230, "lng": -83.1710, "city": "McIntyre" },
  "31055": { "lat": 32.0730, "lng": -82.8530, "city": "McRae" },
  "31057": { "lat": 32.3200, "lng": -83.7870, "city": "Marshallville" },
  "31058": { "lat": 32.5840, "lng": -84.1420, "city": "Mauk" },
  "31060": { "lat": 31.9920, "lng": -82.8780, "city": "Milan" },
  "31061": { "lat": 33.0800, "lng": -83.2290, "city": "Milledgeville" },
  "31062": { "lat": 33.0970, "lng": -83.2350, "city": "Milledgeville" },
  "31063": { "lat": 32.3400, "lng": -83.8070, "city": "Montezuma" },
  "31064": { "lat": 33.2370, "lng": -83.6660, "city": "Monticello" },
  "31065": { "lat": 32.5470, "lng": -82.9790, "city": "Montrose" },
  "31066": { "lat": 32.8100, "lng": -83.7070, "city": "Musella" },
  "31068": { "lat": 32.3370, "lng": -84.0210, "city": "Oglethorpe" },
  "31069": { "lat": 32.4870, "lng": -83.7620, "city": "Perry" },
  "31070": { "lat": 32.1220, "lng": -83.5520, "city": "Pinehurst" },
  "31071": { "lat": 32.2390, "lng": -83.5420, "city": "Pineview" },
  "31072": { "lat": 32.0570, "lng": -83.5720, "city": "Pitts" },
  "31075": { "lat": 32.4060, "lng": -82.6700, "city": "Rentz" },
  "31076": { "lat": 32.5540, "lng": -84.0870, "city": "Reynolds" },
  "31077": { "lat": 31.9500, "lng": -83.1410, "city": "Rhine" },
  "31078": { "lat": 32.7500, "lng": -84.0100, "city": "Roberta" },
  "31079": { "lat": 31.9320, "lng": -83.0880, "city": "Rochelle" },
  "31081": { "lat": 32.5600, "lng": -84.2700, "city": "Rupert" },
  "31082": { "lat": 32.9780, "lng": -82.8110, "city": "Sandersville" },
  "31083": { "lat": 32.0810, "lng": -82.9610, "city": "Scotland" },
  "31085": { "lat": 33.2100, "lng": -83.5470, "city": "Shady Dale" },
  "31087": { "lat": 33.2360, "lng": -83.0690, "city": "Sparta" },
  "31088": { "lat": 32.5370, "lng": -83.6290, "city": "Warner Robins" },
  "31089": { "lat": 32.8120, "lng": -82.8750, "city": "Tennille" },
  "31090": { "lat": 32.7180, "lng": -83.1100, "city": "Toomsboro" },
  "31091": { "lat": 32.1330, "lng": -83.6930, "city": "Unadilla" },
  "31092": { "lat": 32.0510, "lng": -83.4590, "city": "Vienna" },
  "31093": { "lat": 32.6160, "lng": -83.6280, "city": "Warner Robins" },
  "31094": { "lat": 33.1260, "lng": -82.8190, "city": "Warthen" },
  "31096": { "lat": 32.4850, "lng": -82.6170, "city": "Wrightsville" },
  "31097": { "lat": 32.8280, "lng": -83.9760, "city": "Yatesville" },
  "31098": { "lat": 32.6200, "lng": -83.5900, "city": "Warner Robins" },
  "31201": { "lat": 32.8370, "lng": -83.6340, "city": "Macon" },
  "31204": { "lat": 32.8580, "lng": -83.6910, "city": "Macon" },
  "31206": { "lat": 32.7990, "lng": -83.6700, "city": "Macon" },
  "31207": { "lat": 32.8310, "lng": -83.6520, "city": "Macon" },
  "31210": { "lat": 32.9070, "lng": -83.7270, "city": "Macon" },
  "31211": { "lat": 32.8540, "lng": -83.5710, "city": "Macon" },
  "31213": { "lat": 32.8310, "lng": -83.6520, "city": "Macon" },
  "31216": { "lat": 32.7210, "lng": -83.6560, "city": "Macon" },
  "31217": { "lat": 32.9010, "lng": -83.5440, "city": "Macon" },
  "31220": { "lat": 32.8770, "lng": -83.7870, "city": "Macon" },
  "31301": { "lat": 31.8390, "lng": -81.5870, "city": "Allenhurst" },
  "31302": { "lat": 32.1180, "lng": -81.3500, "city": "Bloomingdale" },
  "31303": { "lat": 32.3170, "lng": -81.4410, "city": "Clyo" },
  "31305": { "lat": 31.5320, "lng": -81.3640, "city": "Darien" },
  "31307": { "lat": 32.2020, "lng": -81.5030, "city": "Eden" },
  "31308": { "lat": 32.1540, "lng": -81.4490, "city": "Ellabell" },
  "31309": { "lat": 31.9180, "lng": -81.4350, "city": "Fleming" },
  "31312": { "lat": 32.2420, "lng": -81.3510, "city": "Guyton" },
  "31313": { "lat": 31.8410, "lng": -81.6160, "city": "Hinesville" },
  "31314": { "lat": 31.8740, "lng": -81.5730, "city": "Fort Stewart" },
  "31316": { "lat": 31.7770, "lng": -81.7660, "city": "Ludowici" },
  "31318": { "lat": 32.2100, "lng": -81.2190, "city": "Meldrim" },
  "31320": { "lat": 31.7880, "lng": -81.3980, "city": "Midway" },
  "31321": { "lat": 32.2440, "lng": -81.6170, "city": "Pembroke" },
  "31322": { "lat": 32.0350, "lng": -81.2370, "city": "Pooler" },
  "31323": { "lat": 31.6810, "lng": -81.5170, "city": "Riceboro" },
  "31324": { "lat": 31.8840, "lng": -81.2930, "city": "Richmond Hill" },
  "31326": { "lat": 32.2730, "lng": -81.2080, "city": "Rincon" },
  "31328": { "lat": 32.0430, "lng": -80.8890, "city": "Tybee Island" },
  "31329": { "lat": 32.3480, "lng": -81.4070, "city": "Springfield" },
  "31331": { "lat": 31.5360, "lng": -81.2570, "city": "Townsend" },
  "31401": { "lat": 32.0640, "lng": -81.1060, "city": "Savannah" },
  "31404": { "lat": 32.0440, "lng": -81.0660, "city": "Savannah" },
  "31405": { "lat": 32.0510, "lng": -81.1580, "city": "Savannah" },
  "31406": { "lat": 31.9930, "lng": -81.0920, "city": "Savannah" },
  "31407": { "lat": 32.1440, "lng": -81.1530, "city": "Savannah" },
  "31408": { "lat": 32.1170, "lng": -81.1850, "city": "Savannah" },
  "31409": { "lat": 31.9870, "lng": -81.0910, "city": "Savannah" },
  "31410": { "lat": 32.0120, "lng": -80.9530, "city": "Savannah" },
  "31411": { "lat": 31.9500, "lng": -81.0230, "city": "Savannah" },
  "31415": { "lat": 32.0860, "lng": -81.1180, "city": "Savannah" },
  "31416": { "lat": 32.0730, "lng": -81.0680, "city": "Savannah" },
  "31419": { "lat": 31.9750, "lng": -81.1670, "city": "Savannah" },
  "31501": { "lat": 31.2140, "lng": -82.3540, "city": "Waycross" },
  "31503": { "lat": 31.1840, "lng": -82.3560, "city": "Waycross" },
  "31510": { "lat": 31.5250, "lng": -82.4300, "city": "Alma" },
  "31512": { "lat": 31.5420, "lng": -82.8610, "city": "Ambrose" },
  "31513": { "lat": 31.7900, "lng": -82.3450, "city": "Baxley" },
  "31516": { "lat": 31.3180, "lng": -82.1150, "city": "Blackshear" },
  "31518": { "lat": 31.5330, "lng": -82.2230, "city": "Broxton" },
  "31519": { "lat": 31.6590, "lng": -82.7290, "city": "Cedar Crossing" },
  "31520": { "lat": 31.1520, "lng": -81.4910, "city": "Brunswick" },
  "31522": { "lat": 31.1720, "lng": -81.3770, "city": "Saint Simons Island" },
  "31523": { "lat": 31.2100, "lng": -81.5460, "city": "Brunswick" },
  "31524": { "lat": 31.1810, "lng": -81.5100, "city": "Brunswick" },
  "31525": { "lat": 31.3010, "lng": -81.5730, "city": "Brunswick" },
  "31527": { "lat": 31.0710, "lng": -81.4200, "city": "Jekyll Island" },
  "31533": { "lat": 31.5090, "lng": -82.8490, "city": "Douglas" },
  "31535": { "lat": 31.5210, "lng": -82.8670, "city": "Douglas" },
  "31537": { "lat": 31.0490, "lng": -82.1350, "city": "Folkston" },
  "31539": { "lat": 31.6010, "lng": -82.5990, "city": "Hazlehurst" },
  "31542": { "lat": 31.4540, "lng": -82.1500, "city": "Hoboken" },
  "31543": { "lat": 31.3650, "lng": -81.7010, "city": "Jesup" },
  "31544": { "lat": 31.7000, "lng": -82.6800, "city": "Lumber City" },
  "31545": { "lat": 31.6080, "lng": -81.8840, "city": "Jesup" },
  "31546": { "lat": 31.5490, "lng": -81.8630, "city": "Jesup" },
  "31548": { "lat": 30.8130, "lng": -81.5650, "city": "Kingsland" },
  "31549": { "lat": 31.7480, "lng": -82.5330, "city": "Lumber City" },
  "31550": { "lat": 31.1920, "lng": -82.7180, "city": "Manor" },
  "31551": { "lat": 31.5490, "lng": -82.0820, "city": "Nahunta" },
  "31552": { "lat": 31.4660, "lng": -82.6330, "city": "Nicholls" },
  "31553": { "lat": 31.1780, "lng": -82.0850, "city": "Offerman" },
  "31554": { "lat": 31.5640, "lng": -82.7700, "city": "Pearson" },
  "31555": { "lat": 31.7790, "lng": -82.1840, "city": "Surrency" },
  "31556": { "lat": 31.5540, "lng": -82.1560, "city": "Screven" },
  "31557": { "lat": 31.3960, "lng": -82.5070, "city": "Waresboro" },
  "31558": { "lat": 30.7990, "lng": -81.5850, "city": "Saint Marys" },
  "31560": { "lat": 31.4760, "lng": -81.9510, "city": "Odum" },
  "31561": { "lat": 31.2140, "lng": -81.3230, "city": "Sea Island" },
  "31562": { "lat": 30.9940, "lng": -82.0790, "city": "Saint George" },
  "31563": { "lat": 31.7480, "lng": -82.1310, "city": "Surrency" },
  "31565": { "lat": 31.0310, "lng": -81.5650, "city": "Waverly" },
  "31566": { "lat": 31.3060, "lng": -81.6330, "city": "Waynesville" },
  "31567": { "lat": 31.4740, "lng": -82.7880, "city": "West Green" },
  "31568": { "lat": 30.9180, "lng": -81.5500, "city": "White Oak" },
  "31569": { "lat": 30.8440, "lng": -81.6780, "city": "Woodbine" },
  "31601": { "lat": 30.8340, "lng": -83.2780, "city": "Valdosta" },
  "31602": { "lat": 30.8840, "lng": -83.3260, "city": "Valdosta" },
  "31605": { "lat": 30.8790, "lng": -83.2150, "city": "Valdosta" },
  "31606": { "lat": 30.7960, "lng": -83.2950, "city": "Valdosta" },
  "31620": { "lat": 31.1310, "lng": -83.4530, "city": "Adel" },
  "31622": { "lat": 31.4360, "lng": -83.2750, "city": "Alapaha" },
  "31624": { "lat": 31.3170, "lng": -82.8120, "city": "Axson" },
  "31625": { "lat": 30.9580, "lng": -83.6310, "city": "Barney" },
  "31626": { "lat": 30.7680, "lng": -83.7790, "city": "Boston" },
  "31627": { "lat": 31.0620, "lng": -83.2010, "city": "Cecil" },
  "31629": { "lat": 30.7730, "lng": -83.5430, "city": "Dixie" },
  "31630": { "lat": 30.9380, "lng": -82.9870, "city": "Du Pont" },
  "31631": { "lat": 30.6790, "lng": -82.8780, "city": "Fargo" },
  "31632": { "lat": 30.9230, "lng": -83.4050, "city": "Hahira" },
  "31634": { "lat": 31.0610, "lng": -82.7290, "city": "Homerville" },
  "31635": { "lat": 30.9900, "lng": -83.0560, "city": "Lakeland" },
  "31636": { "lat": 30.7360, "lng": -83.2460, "city": "Lake Park" },
  "31637": { "lat": 31.2100, "lng": -83.4430, "city": "Lenox" },
  "31638": { "lat": 30.7310, "lng": -83.4170, "city": "Morven" },
  "31639": { "lat": 31.2070, "lng": -83.1340, "city": "Nashville" },
  "31641": { "lat": 30.8470, "lng": -83.0280, "city": "Naylor" },
  "31642": { "lat": 31.3250, "lng": -82.9510, "city": "Pearson" },
  "31643": { "lat": 30.7290, "lng": -83.3030, "city": "Rays Mill" },
  "31645": { "lat": 31.0810, "lng": -83.2120, "city": "Sparks" },
  "31647": { "lat": 31.3590, "lng": -83.4210, "city": "Tifton" },
  "31648": { "lat": 30.7550, "lng": -83.1280, "city": "Valdosta" },
  "31649": { "lat": 31.1170, "lng": -83.0830, "city": "Willacoochee" },
  "31650": { "lat": 31.3850, "lng": -82.9030, "city": "Broxton" },
  "31698": { "lat": 30.8370, "lng": -83.2900, "city": "Valdosta" },
  "31701": { "lat": 31.5790, "lng": -84.1550, "city": "Albany" },
  "31705": { "lat": 31.5230, "lng": -84.0780, "city": "Albany" },
  "31707": { "lat": 31.5820, "lng": -84.2050, "city": "Albany" },
  "31709": { "lat": 32.0720, "lng": -84.2320, "city": "Americus" },
  "31711": { "lat": 32.0710, "lng": -84.2320, "city": "Americus" },
  "31712": { "lat": 31.8690, "lng": -83.7910, "city": "Arabi" },
  "31714": { "lat": 31.7490, "lng": -83.7780, "city": "Ashburn" },
  "31716": { "lat": 31.3890, "lng": -84.0170, "city": "Baconton" },
  "31719": { "lat": 32.0650, "lng": -84.2660, "city": "Americus" },
  "31720": { "lat": 30.8840, "lng": -83.6960, "city": "Barwick" },
  "31721": { "lat": 31.4680, "lng": -84.1910, "city": "Albany" },
  "31722": { "lat": 31.1380, "lng": -83.6580, "city": "Berlin" },
  "31727": { "lat": 31.1460, "lng": -83.5210, "city": "Brookfield" },
  "31730": { "lat": 31.3350, "lng": -84.2450, "city": "Camilla" },
  "31733": { "lat": 31.2180, "lng": -83.5220, "city": "Chula" },
  "31735": { "lat": 31.8710, "lng": -84.0980, "city": "Cobb" },
  "31738": { "lat": 30.9570, "lng": -83.7900, "city": "Coolidge" },
  "31743": { "lat": 31.7330, "lng": -84.0810, "city": "De Soto" },
  "31744": { "lat": 31.2940, "lng": -83.8280, "city": "Doerun" },
  "31747": { "lat": 31.0670, "lng": -83.5700, "city": "Ellenton" },
  "31749": { "lat": 31.2390, "lng": -83.6820, "city": "Enigma" },
  "31750": { "lat": 31.4270, "lng": -83.4130, "city": "Fitzgerald" },
  "31756": { "lat": 31.1510, "lng": -83.8930, "city": "Funston" },
  "31757": { "lat": 30.8630, "lng": -84.0410, "city": "Hartsfield" },
  "31763": { "lat": 31.5990, "lng": -84.3370, "city": "Leesburg" },
  "31764": { "lat": 31.7660, "lng": -84.1950, "city": "Leslie" },
  "31765": { "lat": 31.0730, "lng": -84.0900, "city": "Meigs" },
  "31768": { "lat": 31.1670, "lng": -83.8000, "city": "Moultrie" },
  "31769": { "lat": 31.3470, "lng": -83.5420, "city": "Mystic" },
  "31771": { "lat": 31.0800, "lng": -83.8030, "city": "Norman Park" },
  "31772": { "lat": 31.4920, "lng": -84.0040, "city": "Oakfield" },
  "31773": { "lat": 30.8930, "lng": -83.8260, "city": "Ochlocknee" },
  "31774": { "lat": 31.3570, "lng": -83.5530, "city": "Ocilla" },
  "31775": { "lat": 31.0200, "lng": -83.5800, "city": "Omega" },
  "31776": { "lat": 31.1670, "lng": -83.7930, "city": "Moultrie" },
  "31778": { "lat": 30.9690, "lng": -83.9570, "city": "Pavo" },
  "31779": { "lat": 31.2420, "lng": -84.1870, "city": "Pelham" },
  "31780": { "lat": 32.0130, "lng": -84.4100, "city": "Plains" },
  "31781": { "lat": 31.5030, "lng": -83.8190, "city": "Poulan" },
  "31783": { "lat": 31.6580, "lng": -83.8620, "city": "Rebecca" },
  "31784": { "lat": 31.4690, "lng": -84.3920, "city": "Sale City" },
  "31787": { "lat": 31.9600, "lng": -84.1640, "city": "Smithville" },
  "31788": { "lat": 30.9660, "lng": -83.8620, "city": "Sparks" },
  "31789": { "lat": 31.5000, "lng": -83.6170, "city": "Sumner" },
  "31790": { "lat": 31.4780, "lng": -83.5850, "city": "Sycamore" },
  "31791": { "lat": 31.7810, "lng": -83.9760, "city": "Sylvester" },
  "31792": { "lat": 30.8360, "lng": -83.9780, "city": "Thomasville" },
  "31793": { "lat": 31.4500, "lng": -83.5130, "city": "Tifton" },
  "31794": { "lat": 31.4690, "lng": -83.5170, "city": "Tifton" },
  "31795": { "lat": 31.3250, "lng": -83.6390, "city": "Ty Ty" },
  "31796": { "lat": 31.7170, "lng": -84.0770, "city": "Warwick" },
  "31798": { "lat": 31.5600, "lng": -83.3390, "city": "Wray" },
  "31801": { "lat": 32.4010, "lng": -84.7010, "city": "Box Springs" },
  "31803": { "lat": 32.3050, "lng": -84.5540, "city": "Buena Vista" },
  "31804": { "lat": 32.6310, "lng": -84.9230, "city": "Cataula" },
  "31805": { "lat": 32.2150, "lng": -84.7160, "city": "Cusseta" },
  "31806": { "lat": 32.3020, "lng": -84.3480, "city": "Ellaville" },
  "31807": { "lat": 32.5500, "lng": -84.8470, "city": "Ellerslie" },
  "31808": { "lat": 32.5710, "lng": -85.0080, "city": "Fortson" },
  "31810": { "lat": 32.4890, "lng": -84.5060, "city": "Geneva" },
  "31811": { "lat": 32.6850, "lng": -84.9230, "city": "Hamilton" },
  "31812": { "lat": 32.4690, "lng": -84.3890, "city": "Junction City" },
  "31814": { "lat": 32.1180, "lng": -84.7900, "city": "Lumpkin" },
  "31815": { "lat": 32.0710, "lng": -84.9090, "city": "Lumpkin" },
  "31816": { "lat": 32.8920, "lng": -84.5740, "city": "Manchester" },
  "31820": { "lat": 32.5980, "lng": -84.8520, "city": "Midland" },
  "31821": { "lat": 32.0830, "lng": -84.9510, "city": "Omaha" },
  "31822": { "lat": 32.7800, "lng": -84.6890, "city": "Pine Mountain" },
  "31823": { "lat": 32.7510, "lng": -84.8600, "city": "Pine Mountain Valley" },
  "31824": { "lat": 32.1680, "lng": -84.5440, "city": "Preston" },
  "31825": { "lat": 32.0610, "lng": -84.6020, "city": "Richland" },
  "31826": { "lat": 32.8000, "lng": -84.5280, "city": "Shiloh" },
  "31827": { "lat": 32.8210, "lng": -84.3560, "city": "Talbotton" },
  "31829": { "lat": 32.5180, "lng": -84.9210, "city": "Upatoi" },
  "31830": { "lat": 32.8440, "lng": -84.7250, "city": "Warm Springs" },
  "31831": { "lat": 32.7310, "lng": -84.7480, "city": "Waverly Hall" },
  "31832": { "lat": 31.9680, "lng": -84.6460, "city": "Weston" },
  "31833": { "lat": 32.7580, "lng": -85.0110, "city": "West Point" },
  "31836": { "lat": 32.8150, "lng": -84.4490, "city": "Woodland" },
  "31901": { "lat": 32.4590, "lng": -84.9870, "city": "Columbus" },
  "31903": { "lat": 32.4080, "lng": -84.9660, "city": "Columbus" },
  "31904": { "lat": 32.5220, "lng": -84.9980, "city": "Columbus" },
  "31905": { "lat": 32.3480, "lng": -84.9530, "city": "Fort Moore" },
  "31906": { "lat": 32.4560, "lng": -84.9560, "city": "Columbus" },
  "31907": { "lat": 32.4240, "lng": -84.9170, "city": "Columbus" },
  "31909": { "lat": 32.5310, "lng": -84.9240, "city": "Columbus" },
  "31993": { "lat": 32.4610, "lng": -84.9880, "city": "Columbus" },
  "39813": { "lat": 31.3410, "lng": -84.7420, "city": "Arlington" },
  "39815": { "lat": 30.7700, "lng": -84.5490, "city": "Attapulgus" },
  "39817": { "lat": 30.8350, "lng": -84.2140, "city": "Bainbridge" },
  "39819": { "lat": 30.6830, "lng": -84.8240, "city": "Blakely" },
  "39823": { "lat": 31.5390, "lng": -84.8710, "city": "Blakely" },
  "39824": { "lat": 31.6380, "lng": -84.8860, "city": "Bluffton" },
  "39825": { "lat": 30.9230, "lng": -84.6250, "city": "Brinson" },
  "39826": { "lat": 31.9490, "lng": -84.5940, "city": "Bronwood" },
  "39827": { "lat": 30.9500, "lng": -84.2180, "city": "Cairo" },
  "39828": { "lat": 30.9040, "lng": -84.2160, "city": "Cairo" },
  "39829": { "lat": 30.7010, "lng": -84.4050, "city": "Calvary" },
  "39832": { "lat": 31.5830, "lng": -84.6690, "city": "Cuthbert" },
  "39834": { "lat": 30.7660, "lng": -84.4220, "city": "Climax" },
  "39836": { "lat": 31.7870, "lng": -84.9720, "city": "Coleman" },
  "39837": { "lat": 31.1990, "lng": -84.3430, "city": "Colquitt" },
  "39840": { "lat": 31.7620, "lng": -84.7930, "city": "Dawson" },
  "39841": { "lat": 31.3650, "lng": -84.5730, "city": "Donalsonville" },
  "39842": { "lat": 31.6660, "lng": -84.5080, "city": "Dawson" },
  "39845": { "lat": 30.6930, "lng": -84.7410, "city": "Donalsonville" },
  "39846": { "lat": 31.3620, "lng": -84.6940, "city": "Edison" },
  "39851": { "lat": 31.6850, "lng": -84.7980, "city": "Georgetown" },
  "39854": { "lat": 31.8320, "lng": -85.0830, "city": "Fort Gaines" },
  "39859": { "lat": 31.0680, "lng": -84.7320, "city": "Iron City" },
  "39861": { "lat": 31.0930, "lng": -84.9470, "city": "Jakin" },
  "39862": { "lat": 31.5340, "lng": -84.5190, "city": "Leary" },
  "39866": { "lat": 31.3890, "lng": -84.4910, "city": "Morgan" },
  "39867": { "lat": 31.8470, "lng": -84.9780, "city": "Morris" },
  "39870": { "lat": 31.4670, "lng": -84.3960, "city": "Newton" },
  "39877": { "lat": 31.9890, "lng": -84.7430, "city": "Parrott" },
  "39885": { "lat": 31.7590, "lng": -84.3370, "city": "Sasser" },
  "39886": { "lat": 31.8830, "lng": -84.7520, "city": "Shellman" },
  "39897": { "lat": 30.8830, "lng": -84.4550, "city": "Whigham" }
}