{
  "20601": { "lat": 38.6530, "lng": -76.8980, "city": "Waldorf" },
  "20602": { "lat": 38.6250, "lng": -76.9390, "city": "Waldorf" },
  "20603": { "lat": 38.5880, "lng": -76.9680, "city": "Waldorf" },
  "20606": { "lat": 38.2590, "lng": -76.7670, "city": "Abell" },
  "20607": { "lat": 38.6520, "lng": -77.0230, "city": "Accokeek" },
  "20608": { "lat": 38.5990, "lng": -76.7070, "city": "Aquasco" },
  "20609": { "lat": 38.2940, "lng": -76.8350, "city": "Avenue" },
  "20610": { "lat": 38.3640, "lng": -76.5340, "city": "Barstow" },
  "20611": { "lat": 38.4850, "lng": -77.0440, "city": "Bel Alton" },
  "20612": { "lat": 38.5200, "lng": -76.6940, "city": "Benedict" },
  "20613": { "lat": 38.6400, "lng": -76.8320, "city": "Brandywine" },
  "20615": { "lat": 38.4190, "lng": -76.5490, "city": "Broomes Island" },
  "20616": { "lat": 38.6370, "lng": -77.0350, "city": "Bryans Road" },
  "20617": { "lat": 38.5540, "lng": -76.8780, "city": "Bryantown" },
  "20618": { "lat": 38.3530, "lng": -76.8070, "city": "Bushwood" },
  "20619": { "lat": 38.2870, "lng": -76.5180, "city": "California" },
  "20620": { "lat": 38.2370, "lng": -76.4700, "city": "Callaway" },
  "20621": { "lat": 38.3880, "lng": -76.8350, "city": "Chaptico" },
  "20622": { "lat": 38.5210, "lng": -76.9730, "city": "Charlotte Hall" },
  "20623": { "lat": 38.7070, "lng": -76.8250, "city": "Cheltenham" },
  "20624": { "lat": 38.2780, "lng": -76.7270, "city": "Clements" },
  "20625": { "lat": 38.2190, "lng": -76.8440, "city": "Cobb Island" },
  "20626": { "lat": 38.2180, "lng": -76.7640, "city": "Coltons Point" },
  "20627": { "lat": 38.3070, "lng": -76.7880, "city": "Compton" },
  "20628": { "lat": 38.1530, "lng": -76.3520, "city": "Dameron" },
  "20630": { "lat": 38.1710, "lng": -76.4700, "city": "Drayden" },
  "20632": { "lat": 38.4500, "lng": -76.9760, "city": "Faulkner" },
  "20634": { "lat": 38.2340, "lng": -76.5250, "city": "Great Mills" },
  "20636": { "lat": 38.3540, "lng": -76.5630, "city": "Hollywood" },
  "20637": { "lat": 38.5350, "lng": -76.7890, "city": "Hughesville" },
  "20639": { "lat": 38.5410, "lng": -76.5620, "city": "Huntingtown" },
  "20640": { "lat": 38.5570, "lng": -77.1640, "city": "Indian Head" },
  "20643": { "lat": 38.4730, "lng": -77.1170, "city": "Ironsides" },
  "20645": { "lat": 38.2960, "lng": -76.9070, "city": "Issue" },
  "20646": { "lat": 38.5290, "lng": -76.9750, "city": "La Plata" },
  "20650": { "lat": 38.2670, "lng": -76.6340, "city": "Leonardtown" },
  "20653": { "lat": 38.2360, "lng": -76.4560, "city": "Lexington Park" },
  "20656": { "lat": 38.3360, "lng": -76.6880, "city": "Loveville" },
  "20657": { "lat": 38.4820, "lng": -76.4870, "city": "Lusby" },
  "20658": { "lat": 38.5420, "lng": -77.1720, "city": "Marbury" },
  "20659": { "lat": 38.3400, "lng": -76.7470, "city": "Mechanicsville" },
  "20660": { "lat": 38.3690, "lng": -76.7310, "city": "Morganza" },
  "20661": { "lat": 38.3630, "lng": -76.9350, "city": "Mount Victoria" },
  "20662": { "lat": 38.4500, "lng": -77.1170, "city": "Nanjemoy" },
  "20664": { "lat": 38.3810, "lng": -76.9330, "city": "Newburg" },
  "20667": { "lat": 38.2850, "lng": -76.4410, "city": "Park Hall" },
  "20670": { "lat": 38.2870, "lng": -76.4290, "city": "Patuxent River" },
  "20674": { "lat": 38.1620, "lng": -76.5260, "city": "Piney Point" },
  "20675": { "lat": 38.5940, "lng": -77.0220, "city": "Pomfret" },
  "20676": { "lat": 38.4960, "lng": -76.5380, "city": "Port Republic" },
  "20677": { "lat": 38.5650, "lng": -77.0140, "city": "Port Tobacco" },
  "20678": { "lat": 38.5340, "lng": -76.5850, "city": "Prince Frederick" },
  "20680": { "lat": 38.1330, "lng": -76.3770, "city": "Ridge" },
  "20684": { "lat": 38.1580, "lng": -76.4280, "city": "Saint Inigoes" },
  "20685": { "lat": 38.4690, "lng": -76.5230, "city": "Saint Leonard" },
  "20686": { "lat": 38.1790, "lng": -76.4210, "city": "Saint Marys City" },
  "20687": { "lat": 38.1510, "lng": -76.3700, "city": "Scotland" },
  "20688": { "lat": 38.4190, "lng": -76.4470, "city": "Solomons" },
  "20689": { "lat": 38.5850, "lng": -76.6410, "city": "Sunderland" },
  "20690": { "lat": 38.1770, "lng": -76.5280, "city": "Tall Timbers" },
  "20692": { "lat": 38.2240, "lng": -76.5160, "city": "Valley Lee" },
  "20693": { "lat": 38.4250, "lng": -77.0290, "city": "Welcome" },
  "20695": { "lat": 38.6130, "lng": -76.9850, "city": "White Plains" },
  "20701": { "lat": 39.1080, "lng": -76.7460, "city": "Annapolis Junction" },
  "20706": { "lat": 38.9660, "lng": -76.8770, "city": "Lanham" },
  "20707": { "lat": 39.0930, "lng": -76.8860, "city": "Laurel" },
  "20708": { "lat": 39.0700, "lng": -76.8540, "city": "Laurel" },
  "20710": { "lat": 38.9420, "lng": -76.9210, "city": "Bladensburg" },
  "20711": { "lat": 38.7870, "lng": -76.6190, "city": "Lothian" },
  "20712": { "lat": 38.9430, "lng": -76.9650, "city": "Mount Rainier" },
  "20714": { "lat": 38.7430, "lng": -76.5570, "city": "North Beach" },
  "20715": { "lat": 38.9810, "lng": -76.7410, "city": "Bowie" },
  "20716": { "lat": 38.9340, "lng": -76.7370, "city": "Bowie" },
  "20720": { "lat": 39.0130, "lng": -76.7750, "city": "Bowie" },
  "20721": { "lat": 38.9440, "lng": -76.7930, "city": "Bowie" },
  "20722": { "lat": 38.9390, "lng": -76.9500, "city": "Brentwood" },
  "20723": { "lat": 39.1360, "lng": -76.8630, "city": "Laurel" },
  "20724": { "lat": 39.1140, "lng": -76.8090, "city": "Laurel" },
  "20725": { "lat": 39.1040, "lng": -76.8500, "city": "Laurel" },
  "20726": { "lat": 39.0100, "lng": -76.8540, "city": "Laurel" },
  "20732": { "lat": 38.6700, "lng": -76.5340, "city": "Chesapeake Beach" },
  "20733": { "lat": 38.8590, "lng": -76.5440, "city": "Churchton" },
  "20735": { "lat": 38.7510, "lng": -76.9150, "city": "Clinton" },
  "20736": { "lat": 38.6810, "lng": -76.5300, "city": "Owings" },
  "20737": { "lat": 38.9640, "lng": -76.9290, "city": "Riverdale" },
  "20740": { "lat": 38.9960, "lng": -76.9330, "city": "College Park" },
  "20742": { "lat": 38.9870, "lng": -76.9430, "city": "College Park" },
  "20743": { "lat": 38.8560, "lng": -76.8990, "city": "Capitol Heights" },
  "20744": { "lat": 38.7550, "lng": -76.9830, "city": "Fort Washington" },
  "20745": { "lat": 38.8090, "lng": -76.9870, "city": "Oxon Hill" },
  "20746": { "lat": 38.8390, "lng": -76.9180, "city": "Suitland" },
  "20747": { "lat": 38.8560, "lng": -76.8810, "city": "District Heights" },
  "20748": { "lat": 38.8120, "lng": -76.9380, "city": "Temple Hills" },
  "20751": { "lat": 38.8490, "lng": -76.5570, "city": "Deale" },
  "20754": { "lat": 38.7170, "lng": -76.5830, "city": "Dunkirk" },
  "20755": { "lat": 39.1080, "lng": -76.7430, "city": "Fort Meade" },
  "20758": { "lat": 38.7700, "lng": -76.5870, "city": "Friendship" },
  "20759": { "lat": 39.1710, "lng": -76.9280, "city": "Fulton" },
  "20762": { "lat": 38.8150, "lng": -76.8560, "city": "Andrews AFB" },
  "20763": { "lat": 39.1340, "lng": -76.8280, "city": "Savage" },
  "20764": { "lat": 38.8830, "lng": -76.5330, "city": "Shady Side" },
  "20765": { "lat": 38.8870, "lng": -76.5270, "city": "Galesville" },
  "20769": { "lat": 39.0060, "lng": -76.8080, "city": "Glenn Dale" },
  "20770": { "lat": 38.9960, "lng": -76.8710, "city": "Greenbelt" },
  "20771": { "lat": 39.0040, "lng": -76.8800, "city": "Greenbelt" },
  "20772": { "lat": 38.8190, "lng": -76.7960, "city": "Upper Marlboro" },
  "20774": { "lat": 38.8720, "lng": -76.8110, "city": "Upper Marlboro" },
  "20776": { "lat": 38.8690, "lng": -76.5940, "city": "Harwood" },
  "20777": { "lat": 39.1880, "lng": -76.9530, "city": "Highland" },
  "20778": { "lat": 38.8750, "lng": -76.5550, "city": "West River" },
  "20779": { "lat": 38.8260, "lng": -76.5700, "city": "Tracys Landing" },
  "20781": { "lat": 38.9470, "lng": -76.9380, "city": "Hyattsville" },
  "20782": { "lat": 38.9700, "lng": -76.9600, "city": "Hyattsville" },
  "20783": { "lat": 39.0020, "lng": -76.9780, "city": "Hyattsville" },
  "20784": { "lat": 38.9520, "lng": -76.8830, "city": "Hyattsville" },
  "20785": { "lat": 38.9150, "lng": -76.8750, "city": "Hyattsville" },
  "20794": { "lat": 39.1420, "lng": -76.7910, "city": "Jessup" },
  "20812": { "lat": 38.9670, "lng": -77.1410, "city": "Glen Echo" },
  "20814": { "lat": 38.9920, "lng": -77.0960, "city": "Bethesda" },
  "20815": { "lat": 38.9780, "lng": -77.0790, "city": "Chevy Chase" },
  "20816": { "lat": 38.9600, "lng": -77.1130, "city": "Bethesda" },
  "20817": { "lat": 39.0140, "lng": -77.1400, "city": "Bethesda" },
  "20818": { "lat": 38.9750, "lng": -77.1620, "city": "Cabin John" },
  "20832": { "lat": 39.1500, "lng": -77.0690, "city": "Olney" },
  "20833": { "lat": 39.1960, "lng": -77.0460, "city": "Brookeville" },
  "20837": { "lat": 39.1170, "lng": -77.3420, "city": "Poolesville" },
  "20838": { "lat": 39.1840, "lng": -77.3260, "city": "Barnesville" },
  "20839": { "lat": 39.1460, "lng": -77.3780, "city": "Beallsville" },
  "20841": { "lat": 39.1830, "lng": -77.2510, "city": "Boyds" },
  "20842": { "lat": 39.2100, "lng": -77.3950, "city": "Dickerson" },
  "20847": { "lat": 39.0860, "lng": -77.1550, "city": "Rockville" },
  "20848": { "lat": 39.0880, "lng": -77.1530, "city": "Rockville" },
  "20849": { "lat": 39.0900, "lng": -77.1500, "city": "Rockville" },
  "20850": { "lat": 39.0870, "lng": -77.1540, "city": "Rockville" },
  "20851": { "lat": 39.0760, "lng": -77.1240, "city": "Rockville" },
  "20852": { "lat": 39.0570, "lng": -77.1220, "city": "Rockville" },
  "20853": { "lat": 39.1070, "lng": -77.0990, "city": "Rockville" },
  "20854": { "lat": 39.0380, "lng": -77.2010, "city": "Potomac" },
  "20855": { "lat": 39.1330, "lng": -77.1490, "city": "Derwood" },
  "20860": { "lat": 39.1790, "lng": -77.0020, "city": "Sandy Spring" },
  "20861": { "lat": 39.1530, "lng": -76.9780, "city": "Ashton" },
  "20862": { "lat": 39.2070, "lng": -77.0190, "city": "Brinklow" },
  "20866": { "lat": 39.1100, "lng": -76.9350, "city": "Burtonsville" },
  "20868": { "lat": 39.1440, "lng": -76.9480, "city": "Spencerville" },
  "20871": { "lat": 39.2050, "lng": -77.2240, "city": "Clarksburg" },
  "20872": { "lat": 39.2590, "lng": -77.1970, "city": "Damascus" },
  "20874": { "lat": 39.1420, "lng": -77.2330, "city": "Germantown" },
  "20876": { "lat": 39.1760, "lng": -77.1900, "city": "Germantown" },
  "20877": { "lat": 39.1370, "lng": -77.1760, "city": "Gaithersburg" },
  "20878": { "lat": 39.1060, "lng": -77.2190, "city": "Gaithersburg" },
  "20879": { "lat": 39.1590, "lng": -77.1950, "city": "Gaithersburg" },
  "20880": { "lat": 39.1780, "lng": -77.1610, "city": "Washington Grove" },
  "20882": { "lat": 39.2220, "lng": -77.1260, "city": "Gaithersburg" },
  "20884": { "lat": 39.1350, "lng": -77.2190, "city": "Gaithersburg" },
  "20886": { "lat": 39.1720, "lng": -77.1340, "city": "Montgomery Village" },
  "20895": { "lat": 39.0280, "lng": -77.0540, "city": "Kensington" },
  "20896": { "lat": 39.0370, "lng": -77.0730, "city": "Garrett Park" },
  "20899": { "lat": 39.1400, "lng": -77.2200, "city": "Gaithersburg" },
  "20901": { "lat": 39.0210, "lng": -77.0060, "city": "Silver Spring" },
  "20902": { "lat": 39.0440, "lng": -77.0140, "city": "Silver Spring" },
  "20903": { "lat": 39.0220, "lng": -76.9810, "city": "Silver Spring" },
  "20904": { "lat": 39.0630, "lng": -76.9760, "city": "Silver Spring" },
  "20905": { "lat": 39.1030, "lng": -76.9820, "city": "Silver Spring" },
  "20906": { "lat": 39.0810, "lng": -77.0500, "city": "Silver Spring" },
  "20910": { "lat": 39.0070, "lng": -77.0370, "city": "Silver Spring" },
  "20912": { "lat": 38.9870, "lng": -77.0060, "city": "Takoma Park" },
  "20913": { "lat": 38.9830, "lng": -76.9970, "city": "Takoma Park" },
  "20914": { "lat": 39.0300, "lng": -77.0280, "city": "Silver Spring" },
  "20915": { "lat": 39.0500, "lng": -77.0410, "city": "Silver Spring" },
  "20916": { "lat": 39.0700, "lng": -77.0300, "city": "Silver Spring" },
  "21001": { "lat": 39.4720, "lng": -76.1890, "city": "Aberdeen" },
  "21005": { "lat": 39.4370, "lng": -76.2970, "city": "Aberdeen Proving Ground" },
  "21009": { "lat": 39.4710, "lng": -76.2590, "city": "Abingdon" },
  "21010": { "lat": 39.3850, "lng": -76.2960, "city": "Gunpowder" },
  "21012": { "lat": 39.0520, "lng": -76.4940, "city": "Arnold" },
  "21013": { "lat": 39.4870, "lng": -76.5440, "city": "Baldwin" },
  "21014": { "lat": 39.5100, "lng": -76.3450, "city": "Bel Air" },
  "21015": { "lat": 39.5450, "lng": -76.3710, "city": "Bel Air" },
  "21017": { "lat": 39.4760, "lng": -76.2330, "city": "Belcamp" },
  "21022": { "lat": 39.4010, "lng": -76.6730, "city": "Brooklandville" },
  "21023": { "lat": 39.4950, "lng": -76.6690, "city": "Butler" },
  "21028": { "lat": 39.5490, "lng": -76.2380, "city": "Churchville" },
  "21029": { "lat": 39.2130, "lng": -76.9560, "city": "Clarksville" },
  "21030": { "lat": 39.4940, "lng": -76.6390, "city": "Cockeysville" },
  "21031": { "lat": 39.4670, "lng": -76.6520, "city": "Hunt Valley" },
  "21032": { "lat": 39.0310, "lng": -76.5720, "city": "Crownsville" },
  "21034": { "lat": 39.6190, "lng": -76.2080, "city": "Darlington" },
  "21035": { "lat": 38.9810, "lng": -76.6200, "city": "Davidsonville" },
  "21036": { "lat": 39.2450, "lng": -76.9380, "city": "Dayton" },
  "21037": { "lat": 38.9370, "lng": -76.5560, "city": "Edgewater" },
  "21040": { "lat": 39.4290, "lng": -76.2960, "city": "Edgewood" },
  "21042": { "lat": 39.2730, "lng": -76.8900, "city": "Ellicott City" },
  "21043": { "lat": 39.2530, "lng": -76.8240, "city": "Ellicott City" },
  "21044": { "lat": 39.2100, "lng": -76.8590, "city": "Columbia" },
  "21045": { "lat": 39.2070, "lng": -76.8200, "city": "Columbia" },
  "21046": { "lat": 39.1760, "lng": -76.8380, "city": "Columbia" },
  "21047": { "lat": 39.5560, "lng": -76.4100, "city": "Fallston" },
  "21048": { "lat": 39.5180, "lng": -76.8640, "city": "Finksburg" },
  "21050": { "lat": 39.5580, "lng": -76.3520, "city": "Forest Hill" },
  "21051": { "lat": 39.4730, "lng": -76.4620, "city": "Fork" },
  "21052": { "lat": 39.2270, "lng": -76.4610, "city": "Fort Howard" },
  "21053": { "lat": 39.5620, "lng": -76.5930, "city": "Freeland" },
  "21054": { "lat": 39.0760, "lng": -76.5530, "city": "Gambrills" },
  "21056": { "lat": 39.1310, "lng": -76.4260, "city": "Gibson Island" },
  "21057": { "lat": 39.4430, "lng": -76.5010, "city": "Glen Arm" },
  "21060": { "lat": 39.1700, "lng": -76.5960, "city": "Glen Burnie" },
  "21061": { "lat": 39.1530, "lng": -76.6370, "city": "Glen Burnie" },
  "21065": { "lat": 39.4930, "lng": -76.6640, "city": "Hunt Valley" },
  "21071": { "lat": 39.4710, "lng": -76.7810, "city": "Glyndon" },
  "21074": { "lat": 39.5340, "lng": -76.7850, "city": "Hampstead" },
  "21075": { "lat": 39.2060, "lng": -76.7510, "city": "Elkridge" },
  "21076": { "lat": 39.1680, "lng": -76.7130, "city": "Hanover" },
  "21077": { "lat": 39.1570, "lng": -76.6890, "city": "Harmans" },
  "21078": { "lat": 39.6310, "lng": -76.0980, "city": "Havre de Grace" },
  "21082": { "lat": 39.4820, "lng": -76.4550, "city": "Hydes" },
  "21084": { "lat": 39.5860, "lng": -76.4340, "city": "Jarrettsville" },
  "21085": { "lat": 39.4220, "lng": -76.3540, "city": "Joppa" },
  "21087": { "lat": 39.4240, "lng": -76.4290, "city": "Kingsville" },
  "21090": { "lat": 39.1850, "lng": -76.6750, "city": "Linthicum Heights" },
  "21093": { "lat": 39.4270, "lng": -76.6310, "city": "Lutherville Timonium" },
  "21102": { "lat": 39.5600, "lng": -76.8310, "city": "Manchester" },
  "21104": { "lat": 39.3630, "lng": -76.8480, "city": "Marriottsville" },
  "21108": { "lat": 39.0910, "lng": -76.6360, "city": "Millersville" },
  "21111": { "lat": 39.5680, "lng": -76.5090, "city": "Monkton" },
  "21113": { "lat": 39.0480, "lng": -76.6730, "city": "Odenton" },
  "21114": { "lat": 39.0540, "lng": -76.6920, "city": "Crofton" },
  "21117": { "lat": 39.3940, "lng": -76.7610, "city": "Owings Mills" },
  "21120": { "lat": 39.5780, "lng": -76.5680, "city": "Parkton" },
  "21122": { "lat": 39.1310, "lng": -76.5370, "city": "Pasadena" },
  "21128": { "lat": 39.4340, "lng": -76.4030, "city": "Perry Hall" },
  "21130": { "lat": 39.4590, "lng": -76.2010, "city": "Perryman" },
  "21131": { "lat": 39.4970, "lng": -76.5640, "city": "Phoenix" },
  "21133": { "lat": 39.3400, "lng": -76.7740, "city": "Randallstown" },
  "21136": { "lat": 39.4260, "lng": -76.7980, "city": "Reisterstown" },
  "21139": { "lat": 39.4280, "lng": -76.6800, "city": "Riderwood" },
  "21140": { "lat": 38.9940, "lng": -76.5620, "city": "Riva" },
  "21144": { "lat": 39.1350, "lng": -76.6930, "city": "Severn" },
  "21146": { "lat": 39.0830, "lng": -76.5660, "city": "Severna Park" },
  "21152": { "lat": 39.5030, "lng": -76.5990, "city": "Sparks Glencoe" },
  "21153": { "lat": 39.4190, "lng": -76.6990, "city": "Stevenson" },
  "21154": { "lat": 39.6240, "lng": -76.4040, "city": "Street" },
  "21155": { "lat": 39.5320, "lng": -76.7680, "city": "Upperco" },
  "21156": { "lat": 39.4620, "lng": -76.4230, "city": "Upper Falls" },
  "21157": { "lat": 39.5640, "lng": -76.9910, "city": "Westminster" },
  "21158": { "lat": 39.6160, "lng": -77.0360, "city": "Westminster" },
  "21160": { "lat": 39.6530, "lng": -76.3200, "city": "Whiteford" },
  "21161": { "lat": 39.6370, "lng": -76.4680, "city": "White Hall" },
  "21162": { "lat": 39.4260, "lng": -76.3610, "city": "White Marsh" },
  "21163": { "lat": 39.3290, "lng": -76.8260, "city": "Woodstock" },
  "21201": { "lat": 39.2950, "lng": -76.6210, "city": "Baltimore" },
  "21202": { "lat": 39.2970, "lng": -76.6060, "city": "Baltimore" },
  "21204": { "lat": 39.3970, "lng": -76.6260, "city": "Towson" },
  "21205": { "lat": 39.3010, "lng": -76.5690, "city": "Baltimore" },
  "21206": { "lat": 39.3380, "lng": -76.5430, "city": "Baltimore" },
  "21207": { "lat": 39.3220, "lng": -76.7240, "city": "Gwynn Oak" },
  "21208": { "lat": 39.3730, "lng": -76.7240, "city": "Pikesville" },
  "21209": { "lat": 39.3700, "lng": -76.6630, "city": "Baltimore" },
  "21210": { "lat": 39.3560, "lng": -76.6330, "city": "Baltimore" },
  "21211": { "lat": 39.3290, "lng": -76.6380, "city": "Baltimore" },
  "21212": { "lat": 39.3560, "lng": -76.6090, "city": "Baltimore" },
  "21213": { "lat": 39.3110, "lng": -76.5810, "city": "Baltimore" },
  "21214": { "lat": 39.3460, "lng": -76.5620, "city": "Baltimore" },
  "21215": { "lat": 39.3440, "lng": -76.6780, "city": "Baltimore" },
  "21216": { "lat": 39.3090, "lng": -76.6620, "city": "Baltimore" },
  "21217": { "lat": 39.3090, "lng": -76.6430, "city": "Baltimore" },
  "21218": { "lat": 39.3280, "lng": -76.6040, "city": "Baltimore" },
  "21219": { "lat": 39.2310, "lng": -76.4360, "city": "Sparrows Point" },
  "21220": { "lat": 39.3220, "lng": -76.4370, "city": "Middle River" },
  "21221": { "lat": 39.2950, "lng": -76.4550, "city": "Essex" },
  "21222": { "lat": 39.2560, "lng": -76.5010, "city": "Dundalk" },
  "21223": { "lat": 39.2830, "lng": -76.6500, "city": "Baltimore" },
  "21224": { "lat": 39.2780, "lng": -76.5440, "city": "Baltimore" },
  "21225": { "lat": 39.2270, "lng": -76.6070, "city": "Brooklyn" },
  "21226": { "lat": 39.2060, "lng": -76.5450, "city": "Curtis Bay" },
  "21227": { "lat": 39.2420, "lng": -76.6860, "city": "Halethorpe" },
  "21228": { "lat": 39.2700, "lng": -76.7360, "city": "Catonsville" },
  "21229": { "lat": 39.2650, "lng": -76.6740, "city": "Baltimore" },
  "21230": { "lat": 39.2660, "lng": -76.6270, "city": "Baltimore" },
  "21231": { "lat": 39.2840, "lng": -76.5920, "city": "Baltimore" },
  "21233": { "lat": 39.2890, "lng": -76.6200, "city": "Baltimore" },
  "21234": { "lat": 39.3950, "lng": -76.5320, "city": "Parkville" },
  "21235": { "lat": 39.3120, "lng": -76.6170, "city": "Baltimore" },
  "21236": { "lat": 39.3670, "lng": -76.4690, "city": "Nottingham" },
  "21237": { "lat": 39.3320, "lng": -76.4940, "city": "Rosedale" },
  "21239": { "lat": 39.3600, "lng": -76.5860, "city": "Baltimore" },
  "21240": { "lat": 39.1690, "lng": -76.6820, "city": "Baltimore" },
  "21241": { "lat": 39.2970, "lng": -76.6100, "city": "Baltimore" },
  "21244": { "lat": 39.3170, "lng": -76.7580, "city": "Windsor Mill" },
  "21250": { "lat": 39.2560, "lng": -76.7130, "city": "Baltimore" },
  "21251": { "lat": 39.3460, "lng": -76.5830, "city": "Baltimore" },
  "21252": { "lat": 39.3940, "lng": -76.6170, "city": "Towson" },
  "21286": { "lat": 39.4050, "lng": -76.5770, "city": "Towson" },
  "21401": { "lat": 38.9780, "lng": -76.4950, "city": "Annapolis" },
  "21402": { "lat": 38.9830, "lng": -76.4640, "city": "Annapolis" },
  "21403": { "lat": 38.9520, "lng": -76.4910, "city": "Annapolis" },
  "21404": { "lat": 38.9730, "lng": -76.5020, "city": "Annapolis" },
  "21405": { "lat": 39.0260, "lng": -76.4590, "city": "Annapolis" },
  "21409": { "lat": 39.0300, "lng": -76.4310, "city": "Annapolis" },
  "21411": { "lat": 38.9780, "lng": -76.4930, "city": "Annapolis" },
  "21412": { "lat": 38.9750, "lng": -76.4860, "city": "Annapolis" },
  "21502": { "lat": 39.6530, "lng": -78.7630, "city": "Cumberland" },
  "21503": { "lat": 39.6520, "lng": -78.7620, "city": "Cumberland" },
  "21504": { "lat": 39.6380, "lng": -78.7780, "city": "Cumberland" },
  "21505": { "lat": 39.6250, "lng": -78.7910, "city": "Cumberland" },
  "21520": { "lat": 39.5120, "lng": -79.3110, "city": "Accident" },
  "21521": { "lat": 39.4940, "lng": -79.0550, "city": "Barton" },
  "21522": { "lat": 39.5400, "lng": -79.1020, "city": "Bittinger" },
  "21523": { "lat": 39.4690, "lng": -79.0750, "city": "Bloomington" },
  "21524": { "lat": 39.6400, "lng": -78.8520, "city": "Corriganville" },
  "21528": { "lat": 39.5810, "lng": -78.9020, "city": "Eckhart Mines" },
  "21529": { "lat": 39.7010, "lng": -78.7770, "city": "Ellerslie" },
  "21530": { "lat": 39.6970, "lng": -78.4890, "city": "Flintstone" },
  "21531": { "lat": 39.6260, "lng": -79.3800, "city": "Friendsville" },
  "21532": { "lat": 39.6560, "lng": -78.9070, "city": "Frostburg" },
  "21536": { "lat": 39.6580, "lng": -79.3400, "city": "Grantsville" },
  "21538": { "lat": 39.4090, "lng": -79.2140, "city": "Kitzmiller" },
  "21539": { "lat": 39.5820, "lng": -78.9360, "city": "Lonaconing" },
  "21540": { "lat": 39.4810, "lng": -79.0460, "city": "Luke" },
  "21541": { "lat": 39.5530, "lng": -79.3940, "city": "McHenry" },
  "21542": { "lat": 39.5780, "lng": -78.9410, "city": "Midland" },
  "21543": { "lat": 39.6020, "lng": -78.8810, "city": "Midlothian" },
  "21545": { "lat": 39.7070, "lng": -78.8570, "city": "Mount Savage" },
  "21550": { "lat": 39.4180, "lng": -79.4080, "city": "Oakland" },
  "21555": { "lat": 39.6220, "lng": -78.5450, "city": "Oldtown" },
  "21557": { "lat": 39.5620, "lng": -78.9270, "city": "Rawlings" },
  "21560": { "lat": 39.5740, "lng": -78.5470, "city": "Spring Gap" },
  "21561": { "lat": 39.4810, "lng": -79.3690, "city": "Swanton" },
  "21562": { "lat": 39.4870, "lng": -79.0120, "city": "Westernport" },
  "21601": { "lat": 38.7740, "lng": -76.0800, "city": "Easton" },
  "21607": { "lat": 39.1460, "lng": -75.8810, "city": "Barclay" },
  "21609": { "lat": 38.7610, "lng": -75.9200, "city": "Bethlehem" },
  "21610": { "lat": 39.3690, "lng": -76.0580, "city": "Betterton" },
  "21612": { "lat": 38.7380, "lng": -76.2640, "city": "Bozman" },
  "21613": { "lat": 38.5080, "lng": -76.0690, "city": "Cambridge" },
  "21617": { "lat": 39.0490, "lng": -75.9760, "city": "Centreville" },
  "21619": { "lat": 38.9520, "lng": -76.2870, "city": "Chester" },
  "21620": { "lat": 39.2180, "lng": -76.0580, "city": "Chestertown" },
  "21622": { "lat": 38.4980, "lng": -76.1460, "city": "Church Creek" },
  "21623": { "lat": 39.1010, "lng": -75.9070, "city": "Church Hill" },
  "21624": { "lat": 38.8490, "lng": -76.2790, "city": "Claiborne" },
  "21625": { "lat": 38.8650, "lng": -76.0720, "city": "Cordova" },
  "21626": { "lat": 38.3310, "lng": -76.0770, "city": "Crapo" },
  "21627": { "lat": 38.2560, "lng": -76.0510, "city": "Crocheron" },
  "21628": { "lat": 39.1540, "lng": -75.9410, "city": "Crumpton" },
  "21629": { "lat": 38.8470, "lng": -75.8400, "city": "Denton" },
  "21631": { "lat": 38.5830, "lng": -75.9230, "city": "East New Market" },
  "21632": { "lat": 38.7900, "lng": -75.7810, "city": "Federalsburg" },
  "21634": { "lat": 38.3680, "lng": -76.1630, "city": "Fishing Creek" },
  "21635": { "lat": 39.3180, "lng": -75.8610, "city": "Galena" },
  "21636": { "lat": 39.0170, "lng": -75.8230, "city": "Goldsboro" },
  "21638": { "lat": 38.9700, "lng": -76.1260, "city": "Grasonville" },
  "21639": { "lat": 38.9570, "lng": -75.8020, "city": "Greensboro" },
  "21640": { "lat": 39.0870, "lng": -75.8450, "city": "Henderson" },
  "21641": { "lat": 38.9210, "lng": -75.9190, "city": "Hillsboro" },
  "21643": { "lat": 38.6060, "lng": -75.8530, "city": "Hurlock" },
  "21644": { "lat": 39.0900, "lng": -75.9380, "city": "Ingleside" },
  "21645": { "lat": 39.3440, "lng": -75.9310, "city": "Kennedyville" },
  "21647": { "lat": 38.7890, "lng": -76.2270, "city": "McDaniel" },
  "21648": { "lat": 38.4900, "lng": -76.2010, "city": "Madison" },
  "21649": { "lat": 39.1140, "lng": -75.8130, "city": "Marydel" },
  "21650": { "lat": 39.3260, "lng": -75.8280, "city": "Massey" },
  "21651": { "lat": 39.2510, "lng": -75.9160, "city": "Millington" },
  "21654": { "lat": 38.7010, "lng": -76.1430, "city": "Neavitt" },
  "21655": { "lat": 38.7500, "lng": -75.9010, "city": "Preston" },
  "21657": { "lat": 39.0210, "lng": -76.0640, "city": "Queen Anne" },
  "21658": { "lat": 39.0300, "lng": -76.1510, "city": "Queenstown" },
  "21659": { "lat": 38.5850, "lng": -75.7850, "city": "Rhodesdale" },
  "21660": { "lat": 38.9010, "lng": -75.8800, "city": "Ridgely" },
  "21661": { "lat": 39.2150, "lng": -76.1670, "city": "Rock Hall" },
  "21662": { "lat": 38.7190, "lng": -76.1600, "city": "Royal Oak" },
  "21663": { "lat": 38.7810, "lng": -76.1760, "city": "Saint Michaels" },
  "21664": { "lat": 38.5650, "lng": -75.9110, "city": "Secretary" },
  "21665": { "lat": 38.7440, "lng": -76.3200, "city": "Sherwood" },
  "21666": { "lat": 38.9170, "lng": -76.3040, "city": "Stevensville" },
  "21667": { "lat": 39.2840, "lng": -76.0540, "city": "Still Pond" },
  "21668": { "lat": 39.1430, "lng": -75.8270, "city": "Sudlersville" },
  "21669": { "lat": 38.4480, "lng": -76.1640, "city": "Taylors Island" },
  "21671": { "lat": 38.6830, "lng": -76.3230, "city": "Tilghman" },
  "21672": { "lat": 38.2850, "lng": -76.0520, "city": "Toddville" },
  "21673": { "lat": 38.7130, "lng": -76.0530, "city": "Trappe" },
  "21675": { "lat": 38.3040, "lng": -76.1080, "city": "Wingate" },
  "21676": { "lat": 38.8180, "lng": -76.3050, "city": "Wye Mills" },
  "21677": { "lat": 38.5510, "lng": -76.1920, "city": "Woolford" },
  "21678": { "lat": 39.2840, "lng": -75.9900, "city": "Worton" },
  "21679": { "lat": 38.9640, "lng": -76.0710, "city": "Wye Mills" },
  "21701": { "lat": 39.4150, "lng": -77.4100, "city": "Frederick" },
  "21702": { "lat": 39.4730, "lng": -77.4480, "city": "Frederick" },
  "21703": { "lat": 39.3780, "lng": -77.4600, "city": "Frederick" },
  "21704": { "lat": 39.3610, "lng": -77.3730, "city": "Frederick" },
  "21705": { "lat": 39.4140, "lng": -77.4080, "city": "Frederick" },
  "21710": { "lat": 39.3280, "lng": -77.4580, "city": "Adamstown" },
  "21711": { "lat": 39.6810, "lng": -77.9260, "city": "Big Pool" },
  "21713": { "lat": 39.5100, "lng": -77.6490, "city": "Boonsboro" },
  "21714": { "lat": 39.4330, "lng": -77.5210, "city": "Braddock Heights" },
  "21715": { "lat": 39.4780, "lng": -77.6690, "city": "Brownsville" },
  "21716": { "lat": 39.3150, "lng": -77.6230, "city": "Brunswick" },
  "21717": { "lat": 39.3550, "lng": -77.4120, "city": "Buckeystown" },
  "21718": { "lat": 39.3870, "lng": -77.6350, "city": "Burkittsville" },
  "21719": { "lat": 39.6620, "lng": -77.4810, "city": "Cascade" },
  "21720": { "lat": 39.6120, "lng": -77.8100, "city": "Cavetown" },
  "21722": { "lat": 39.6070, "lng": -77.8920, "city": "Clear Spring" },
  "21723": { "lat": 39.3260, "lng": -77.0220, "city": "Cooksville" },
  "21727": { "lat": 39.6880, "lng": -77.3320, "city": "Emmitsburg" },
  "21733": { "lat": 39.5550, "lng": -77.7240, "city": "Fairplay" },
  "21734": { "lat": 39.6050, "lng": -77.7040, "city": "Funkstown" },
  "21737": { "lat": 39.2880, "lng": -77.0410, "city": "Glenelg" },
  "21738": { "lat": 39.2910, "lng": -77.0480, "city": "Glenwood" },
  "21740": { "lat": 39.6440, "lng": -77.7190, "city": "Hagerstown" },
  "21741": { "lat": 39.6370, "lng": -77.7220, "city": "Hagerstown" },
  "21742": { "lat": 39.6690, "lng": -77.6890, "city": "Hagerstown" },
  "21746": { "lat": 39.5930, "lng": -77.6780, "city": "Hagerstown" },
  "21750": { "lat": 39.6280, "lng": -78.1700, "city": "Hancock" },
  "21754": { "lat": 39.3430, "lng": -77.3140, "city": "Ijamsville" },
  "21755": { "lat": 39.3730, "lng": -77.5470, "city": "Jefferson" },
  "21756": { "lat": 39.4540, "lng": -77.6840, "city": "Keedysville" },
  "21757": { "lat": 39.5650, "lng": -77.1540, "city": "Keymar" },
  "21758": { "lat": 39.3520, "lng": -77.6560, "city": "Knoxville" },
  "21762": { "lat": 39.4790, "lng": -77.2940, "city": "Libertytown" },
  "21765": { "lat": 39.3490, "lng": -77.1190, "city": "Lisbon" },
  "21766": { "lat": 39.6450, "lng": -78.3440, "city": "Little Orleans" },
  "21767": { "lat": 39.6680, "lng": -77.7490, "city": "Maugansville" },
  "21769": { "lat": 39.4320, "lng": -77.5510, "city": "Middletown" },
  "21770": { "lat": 39.3600, "lng": -77.2760, "city": "Monrovia" },
  "21771": { "lat": 39.3840, "lng": -77.1550, "city": "Mount Airy" },
  "21773": { "lat": 39.4470, "lng": -77.5540, "city": "Myersville" },
  "21774": { "lat": 39.3990, "lng": -77.2830, "city": "New Market" },
  "21776": { "lat": 39.4590, "lng": -77.0620, "city": "New Windsor" },
  "21777": { "lat": 39.3320, "lng": -77.5510, "city": "Point of Rocks" },
  "21778": { "lat": 39.5590, "lng": -77.3440, "city": "Rocky Ridge" },
  "21779": { "lat": 39.4400, "lng": -77.6610, "city": "Rohrersville" },
  "21780": { "lat": 39.7010, "lng": -77.4770, "city": "Sabillasville" },
  "21782": { "lat": 39.4540, "lng": -77.7150, "city": "Sharpsburg" },
  "21783": { "lat": 39.6390, "lng": -77.5750, "city": "Smithsburg" },
  "21784": { "lat": 39.4200, "lng": -76.9450, "city": "Sykesville" },
  "21787": { "lat": 39.6240, "lng": -76.9310, "city": "Taneytown" },
  "21788": { "lat": 39.5390, "lng": -77.4100, "city": "Thurmont" },
  "21790": { "lat": 39.2900, "lng": -77.5170, "city": "Tuscarora" },
  "21791": { "lat": 39.5170, "lng": -77.1120, "city": "Union Bridge" },
  "21793": { "lat": 39.4640, "lng": -77.3440, "city": "Walkersville" },
  "21794": { "lat": 39.2760, "lng": -76.9750, "city": "West Friendship" },
  "21795": { "lat": 39.5910, "lng": -77.8080, "city": "Williamsport" },
  "21797": { "lat": 39.3210, "lng": -77.0700, "city": "Woodbine" },
  "21798": { "lat": 39.5020, "lng": -77.3360, "city": "Woodsboro" },
  "21801": { "lat": 38.3630, "lng": -75.5970, "city": "Salisbury" },
  "21802": { "lat": 38.3600, "lng": -75.5960, "city": "Salisbury" },
  "21803": { "lat": 38.3510, "lng": -75.5870, "city": "Salisbury" },
  "21804": { "lat": 38.3980, "lng": -75.5540, "city": "Salisbury" },
  "21810": { "lat": 38.3720, "lng": -75.6870, "city": "Allen" },
  "21811": { "lat": 38.3610, "lng": -75.2040, "city": "Berlin" },
  "21813": { "lat": 38.3850, "lng": -75.1730, "city": "Bishopville" },
  "21814": { "lat": 38.3240, "lng": -75.8530, "city": "Bivalve" },
  "21817": { "lat": 38.0200, "lng": -75.8530, "city": "Crisfield" },
  "21821": { "lat": 38.1980, "lng": -75.8960, "city": "Deal Island" },
  "21822": { "lat": 38.2660, "lng": -75.7160, "city": "Eden" },
  "21824": { "lat": 37.9850, "lng": -76.0350, "city": "Ewell" },
  "21826": { "lat": 38.3660, "lng": -75.6300, "city": "Fruitland" },
  "21829": { "lat": 38.1020, "lng": -75.3820, "city": "Girdletree" },
  "21830": { "lat": 38.4120, "lng": -75.7080, "city": "Hebron" },
  "21835": { "lat": 38.5310, "lng": -76.0160, "city": "Linkwood" },
  "21836": { "lat": 38.2380, "lng": -75.8800, "city": "Manokin" },
  "21837": { "lat": 38.4380, "lng": -75.7440, "city": "Mardela Springs" },
  "21838": { "lat": 38.0670, "lng": -75.8390, "city": "Marion Station" },
  "21840": { "lat": 38.2860, "lng": -75.8520, "city": "Nanticoke" },
  "21841": { "lat": 38.2780, "lng": -75.3010, "city": "Newark" },
  "21842": { "lat": 38.3360, "lng": -75.0850, "city": "Ocean City" },
  "21843": { "lat": 38.3770, "lng": -75.0740, "city": "Ocean City" },
  "21849": { "lat": 38.3640, "lng": -75.3590, "city": "Parsonsburg" },
  "21850": { "lat": 38.3890, "lng": -75.5560, "city": "Pittsville" },
  "21851": { "lat": 38.0870, "lng": -75.5680, "city": "Pocomoke City" },
  "21853": { "lat": 38.2010, "lng": -75.7670, "city": "Princess Anne" },
  "21856": { "lat": 38.3110, "lng": -75.7630, "city": "Quantico" },
  "21857": { "lat": 38.1430, "lng": -75.6560, "city": "Rehobeth" },
  "21861": { "lat": 38.4530, "lng": -75.8220, "city": "Sharptown" },
  "21862": { "lat": 38.3890, "lng": -75.2080, "city": "Showell" },
  "21863": { "lat": 38.2240, "lng": -75.3370, "city": "Snow Hill" },
  "21864": { "lat": 38.0840, "lng": -75.4260, "city": "Stockton" },
  "21865": { "lat": 38.3080, "lng": -75.7710, "city": "Tyaskin" },
  "21866": { "lat": 38.0060, "lng": -76.0280, "city": "Tylerton" },
  "21867": { "lat": 38.1190, "lng": -75.7500, "city": "Upper Fairmount" },
  "21869": { "lat": 38.4780, "lng": -75.9190, "city": "Vienna" },
  "21871": { "lat": 38.1380, "lng": -75.8140, "city": "Westover" },
  "21872": { "lat": 38.4140, "lng": -75.2740, "city": "Whaleyville" },
  "21874": { "lat": 38.4160, "lng": -75.6200, "city": "Willards" },
  "21875": { "lat": 38.3770, "lng": -75.6100, "city": "Delmar" },
  "21901": { "lat": 39.6090, "lng": -75.9600, "city": "North East" },
  "21902": { "lat": 39.5390, "lng": -76.0770, "city": "Perry Point" },
  "21903": { "lat": 39.5740, "lng": -76.0730, "city": "Perryville" },
  "21904": { "lat": 39.6140, "lng": -76.0350, "city": "Port Deposit" },
  "21911": { "lat": 39.6660, "lng": -75.9200, "city": "Rising Sun" },
  "21912": { "lat": 39.4210, "lng": -75.8960, "city": "Warwick" },
  "21913": { "lat": 39.3770, "lng": -75.9030, "city": "Cecilton" },
  "21914": { "lat": 39.5710, "lng": -75.9810, "city": "Charlestown" },
  "21915": { "lat": 39.4280, "lng": -75.8420, "city": "Chesapeake City" },
  "21917": { "lat": 39.6270, "lng": -76.0150, "city": "Colora" },
  "21918": { "lat": 39.6570, "lng": -76.1020, "city": "Conowingo" },
  "21919": { "lat": 39.5430, "lng": -75.9200, "city": "Earleville" },
  "21920": { "lat": 39.6580, "lng": -75.8370, "city": "Elk Mills" },
  "21921": { "lat": 39.6120, "lng": -75.8430, "city": "Elkton" },
  "21922": { "lat": 39.5920, "lng": -75.7860, "city": "Elkton" }
}
